elevation,id,latitude,longitude,name,nationalPark,region,unitaryAuthArea,obsSource
933.0,3072,56.879,-3.42,Cairnwell,Cairngorms National Park,ta,Perth and Kinross,
134.0,3088,56.852,-2.264,Inverbervie,,gr,Aberdeenshire,
4.0,3094,57.698,-2.121,Rosehearty Samos,,gr,Aberdeenshire,
35.0,3144,56.326,-3.729,Strathallan,,ta,Perth and Kinross,
277.0,3152,55.862,-3.875,Salsburgh,,st,North Lanarkshire,
57.0,3166,55.928,-3.343,Edinburgh/Gogarbank,,dg,Edinburgh,
16.0,3204,54.0849,-4.6321,Ronaldsway,,nw,,LNDSYN
124.0,3210,54.5181,-3.615,St. Bees Head,,nw,Cumbria,LNDSYN
28.0,3220,54.933,-2.963,Carlisle,,nw,Cumbria,
285.0,3224,55.05,-2.553,Spadeadam,,nw,Cumbria,
32.0,3257,54.296,-1.53,Leeming,,yh,North Yorkshire,
33.0,3261,54.134,-1.414,Dishforth Airfield,,yh,North Yorkshire,
7.0,3382,53.867,-0.433,Leconfield Sar,,yh,East Riding of Yorkshire,
3.0,3392,53.088,0.274,Wainfleet,,em,Lincolnshire,
4.0,6,50.9561,0.9392,Lydd,,se,Kent,
24.0,22,53.5797,-0.3472,Humberside Airport,,yh,North Lincolnshire,
25.0,33,60.4322,-1.2992,Scatsta,,os,Shetland Islands,
7.0,3006,60.447,-1.277,Sella Ness,,os,Shetland Islands,
57.0,3008,59.527,-1.628,Fair Isle,,os,Shetland Islands,
18.0,3037,57.257,-5.809,Skye/Lusa (Samos),,he,Highland,LNDSYN
773.0,3039,57.4175,-5.689,Bealach Na Ba,,he,Highland,
1130.0,3041,56.822,-4.97,Aonach Mor,,he,Highland,
99.0,99003,58.167,-4.733,Cassley,,he,Highland,
48.0,99025,52.833,-1.25,Sutton Bonington,,em,Nottinghamshire,
89.0,99057,52.017,-0.6,Woburn,,ee,Central Bedfordshire,
140.0,99062,52.456,-1.9262,Winterbourne,,wm,West Midlands Conurbation,
41.0,99078,52.4,-0.233,Monks Wood,,ee,Cambridgeshire,
43.0,99086,54.667,-5.75,Helens Bay,,ni,County Down,
20.0,3980,55.366,-7.333,Malin Head,,,,LNDSYN
95.0,3405,52.789,-4.742,Aberdaron,,wl,Gwynedd,
163.0,3409,52.917,-3.583,Bala,,wl,Gwynedd,
72.0,3414,52.794,-2.663,Shawbury,,wm,Shropshire,
138.0,3453,52.727,-0.654,Cottesmore,,em,Rutland,
21.0,3482,52.651,0.569,Marham,,ee,Norfolk,
14.0,3496,52.686,1.693,Hemsby,,ee,Norfolk,
63.0,3503,52.344,-3.947,Trawsgoed,,wl,Ceredigion,
307.0,3507,52.063,-3.614,Sennybridge,,wl,Powys,
44.0,3604,51.708,-5.055,Milford Haven C.B.,,wl,Pembrokeshire,
59.0,3628,51.521,-2.576,Filton,,sw,South Gloucestershire,
81.0,3649,51.758,-1.576,Brize Norton,,se,Oxfordshire,
40.0,3672,51.548,-0.415,Northolt,,se,Greater London,
348.0,3710,51.087,-3.608,Liscombe,Exmoor National Park,sw,Somerset,
49.0,3716,51.405,-3.44,St-Athan,,wl,Vale of Glamorgan,
118.0,3761,51.238,-0.944,Odiham,,se,Hampshire,
25.0,3772,51.479,-0.4491,Heathrow,,se,Greater London,
54.0,3797,51.3422,1.3461,Manston,,se,Kent,LNDSYN
50.0,3827,50.354,-4.121,Mount Batten,,sw,Plymouth,LNDSYN
19.0,3865,50.901,-1.403,Southampton W.C.,,se,Southampton,
84.0,3895,49.2079,-2.1955,Jersey,,sw,Jersey,LNDSYN
156.0,3916,55.181,-6.153,Ballypatrick Forest,,ni,County Antrim,
43.0,3928,54.852,-5.83,Larne,,ni,County Antrim,
79.0,310006,52.4065,-1.5182,Coventry,,wm,West Midlands Conurbation,
9.0,310023,54.1088,-3.2175,Barrow-In-Furness,,nw,Cumbria,
50.0,310026,51.3754,-2.3585,Bath,,sw,Bath and North East Somerset,
22.0,310034,50.7187,-1.8794,Bournemouth,,sw,Bournemouth,
1.0,320313,54.4862,-0.6117,Whitby,,yh,North Yorkshire,
89.0,321942,56.6218,-3.8656,Aberfeldy,,ta,Perth and Kinross,
21.0,310046,51.7345,0.4778,Chelmsford,,ee,Essex,
59.0,310056,53.1001,-2.4424,Crewe,,nw,Cheshire East,
7.0,310069,50.7179,-3.5327,Exeter,,sw,Devon,
40.0,310071,51.0809,1.1711,Folkestone,,se,Kent,
157.0,310103,55.9007,-3.5167,Livingston,,dg,West Lothian,
15.0,310104,52.4807,1.7553,Lowestoft,,ee,Suffolk,
111.0,310105,51.8783,-0.4155,Luton,,ee,Luton,
10.0,310108,51.3892,1.3886,Margate,,se,Kent,
2.0,310121,50.7139,-1.9866,Poole,,sw,Poole,
11.0,310130,53.3418,-2.7283,Runcorn,,nw,Halton,
131.0,310150,51.5556,-1.7784,Swindon,,sw,Swindon,
19.0,310170,57.1498,-2.0927,Aberdeen,,gr,Aberdeen,
22.0,310191,50.7623,-1.2991,Cowes,,se,Isle of Wight,
17.0,322064,51.8157,1.0231,Brightlingsea,,ee,Essex,
32.0,322944,55.8881,-4.8904,Wemyss Bay,,st,Inverclyde,
1.0,322951,52.666,0.1605,Wisbech,,ee,Cambridgeshire,
17.0,322953,54.6435,-3.5414,Workington,,nw,Cumbria,
50.0,322636,50.1686,-5.106,Penryn,,sw,Cornwall,
46.0,320003,51.0683,-1.7931,Salisbury,,sw,Wiltshire,
52.0,322172,54.3446,-7.6313,Enniskillen,,ni,County Fermanagh,
62.0,322193,51.9936,-4.9749,Fishguard,,wl,Pembrokeshire,
9.0,322230,55.2401,-4.853,Girvan,,st,South Ayrshire,
1.0,322234,53.7027,-0.8748,Goole,,yh,East Riding of Yorkshire,
32.0,322281,51.5,-0.42,Hayes,,se,Greater London,
1.0,322324,51.45,0.71,Isle Of Grain,,se,Medway,
55.0,324152,51.3775,-0.0933,Croydon,,se,Greater London,
4.0,324153,51.4119,-0.2991,Kingston Upon Thames,,se,Greater London,
98.0,324157,55.427,-2.7795,Hawick,,dg,Scottish Borders,
100.0,324162,52.0308,-0.4946,Ampthill,,ee,Central Bedfordshire,
31.0,324166,52.0857,-0.2626,Biggleswade,,ee,Central Bedfordshire,
112.0,324173,51.7181,-1.9668,Cirencester,,sw,Gloucestershire,
19.0,324181,53.2796,-2.896,Ellesmere Port,,nw,Cheshire West and Chester,
23.0,324185,57.1441,-4.6798,Fort Augustus,,he,Highland,
217.0,324190,57.3306,-3.6082,Grantown-On-Spey,Cairngorms National Park,he,Highland,
116.0,324194,52.5451,-1.3752,Hinckley,,em,Leicestershire,
71.0,324198,52.396,-0.7287,Kettering,,em,Northamptonshire,
97.0,324200,55.1222,-3.3476,Lockerbie,,dg,Dumfries and Galloway,
10.0,324203,52.59,-3.8522,Machynlleth,,wl,Powys,
12.0,324215,53.3211,-0.9439,Retford,,em,Nottinghamshire,
154.0,324224,52.6781,-2.4439,Telford,,wm,Telford and Wrekin,
39.0,324229,53.6831,-1.5044,Wakefield,,yh,West Yorkshire,
9.0,324235,53.3608,-2.7322,Widnes,,nw,Halton,
117.0,324237,51.9445,-0.8772,Winslow,,se,Buckinghamshire,
15.0,324251,52.9311,1.3036,Cromer,,ee,Norfolk,
8.0,324255,53.558,-3.0674,Formby,,nw,Merseyside,
164.0,324259,54.9828,-2.5379,Greenhead Youth Hostel,,ne,Northumberland,
65.0,324262,51.9964,-3.8007,Llandovery,,wl,Carmarthenshire,
61.0,324266,50.9016,-3.49,Tiverton,,sw,Devon,
86.0,324268,51.5859,-2.1014,Malmesbury,,sw,Wiltshire,
7.0,322847,54.59,-1.15,Teesport,,ne,Redcar and Cleveland,
106.0,324049,54.6637,-1.6772,Bishop Auckland,,ne,Durham,
38.0,324059,51.7953,-0.0796,Hertford,,ee,Hertfordshire,
14.0,324064,54.9602,-4.4819,Newton Stewart,,dg,Dumfries and Galloway,
12.0,324069,52.3252,1.682,Southwold,,ee,Suffolk,
82.0,324073,50.5506,-4.1405,Tavistock,,sw,Devon,
26.0,324076,58.567,-4.75,Durness,,he,Highland,
49.0,322372,54.3279,-2.7449,Kendal,,nw,Cumbria,
93.0,322446,51.97,-0.23,Letchworth,,ee,Hertfordshire,
66.0,322467,56.54,-5.79,Lochaline,,he,Highland,
34.0,322494,51.7314,0.6731,Maldon,,ee,Essex,
42.0,322581,52.92,-1.08,Nottingham,,em,Nottinghamshire,
27.0,322718,56.0365,-3.4216,Rosyth,,ta,Fife,
4.0,322752,60.1381,-1.2804,Scalloway,,os,Shetland Islands,
27.0,322757,58.611,-3.551,Scrabster,,he,Highland,
27.0,322758,54.8402,-1.3359,Seaham,,ne,Durham,
16.0,322763,51.72,-2.47,Sharpness,,sw,Gloucestershire,
10.0,322774,54.8683,-3.3881,Silloth,,nw,Cumbria,
22.0,324387,51.5077,-0.165,Hyde Park,,se,Greater London,
391.0,99557,54.1,-2.167,Malham Tarn,Yorkshire Dales National Park,yh,North Yorkshire,
75.0,99124,52.26,0.569,Brooms Barn,,ee,Suffolk,
5.0,99203,51.534,-0.0090,Londonolympic Park South,,se,Greater London,
9.0,322237,55.9828,-3.232,Granton,,dg,Edinburgh,
10.0,301777,55.9245,-4.5858,Langbank,,st,Renfrewshire,
5.0,349,50.9134,0.9597,Dungeness B,,se,Kent,
128.0,350003,53.0333,-2.14,Abbey Hulton,,wm,Stoke-on-Trent,
128.0,350007,51.6459,-3.1323,Abercarn,,wl,Caerphilly,
4.0,350008,53.289,-3.8456,Aberconwy House,,wl,Conwy,
81.0,350012,57.145,-2.1432,Aberdeen Youth Hostel,,gr,Aberdeen,
6.0,350014,52.5437,-4.0449,Aberdovey,Snowdonia National Park,wl,Gwynedd,
210.0,350020,51.7313,-3.1336,Abertillery,,wl,Blaenau Gwent,
9.0,350021,52.415,-4.0817,Aberystwyth,,wl,Ceredigion,
138.0,350023,53.7534,-2.3707,Accrington,,nw,Lancashire,
9.0,350028,58.1699,-5.3,Achmelvich Youth Hostel,,he,Highland,
1120.0,350029,57.1825,-5.1542,A'Chralaig,,he,Highland,
93.0,350038,53.6108,-2.6049,Adlington,,nw,Lancashire,
1.0,350039,51.5322,0.7199,Adventure Island,,ee,Southend-on-Sea,
161.0,350042,55.1954,-3.5944,Ae Mountain Bike Trail Centre,,dg,Dumfries and Galloway,
16.0,350046,53.4791,-2.9359,Aintree,,nw,Merseyside,
40.0,350049,52.2149,-1.8662,Alcester,,wm,Warwickshire,
86.0,350053,52.4487,-1.4706,Alderman's Green,,wm,West Midlands Conurbation,
161.0,350055,52.6057,-1.9143,Aldridge,,wm,West Midlands Conurbation,
110.0,350065,52.4241,-1.565,Allesley,,wm,West Midlands Conurbation,
299.0,350070,54.8121,-2.4372,Alston,,nw,Cumbria,
308.0,350071,54.8052,-2.4369,Alston Youth Hostel,,nw,Cumbria,
94.0,350073,52.2815,-1.0006,Althorp House,,em,Northamptonshire,
42.0,350075,53.3899,-2.3495,Altrincham,,nw,Greater Manchester,
36.0,310013,53.479,-2.2465,Manchester,,nw,Greater Manchester,
22.0,310167,52.1933,-2.2202,Worcester,,wm,Worcestershire,
28.0,310181,51.0162,-4.2055,Bideford,,sw,Devon,
162.0,324052,52.9846,-1.985,Cheadle (Staffordshire),,wm,Staffordshire,
59.0,3134,55.907,-4.533,Glasgow/Bishopton,,st,Renfrewshire,
242.0,3162,55.311,-3.206,Eskdalemuir,,dg,Dumfries and Galloway,
227.0,3226,54.572,-2.413,Warcop,,nw,Cumbria,
8.0,3385,53.473,0.154,Donna Nook,,em,Lincolnshire,LNDSYN
1.0,310240,51.3606,1.0259,Whitstable,,se,Kent,
103.0,99016,58.233,-3.917,Kinbrace,,he,Highland,
8.0,354377,51.509,-0.029,Excel,,se,Greater London,
89.0,352193,58.0223,-4.401,Lairg,,he,Highland,
128.0,352198,51.5075,-1.5301,Lambourn,,se,West Berkshire,
63.0,352205,50.0641,-5.709,Land's End,,sw,Cornwall,
102.0,352207,50.1134,-5.6913,Land's End Youth Hostel,,sw,Cornwall,
159.0,352209,54.4374,-3.0206,Langdale Youth Hostel,Lake District National Park,nw,Cumbria,
83.0,352211,55.153,-2.9975,Langholm,,dg,Dumfries and Galloway,
8.0,352213,51.0377,-2.8274,Langport,,sw,Somerset,
259.0,352214,53.5032,-1.6769,Langsett Youth Hostel,,yh,South Yorkshire,
117.0,352217,52.5336,-0.9453,Langton Hall,,em,Leicestershire,
76.0,352218,50.4402,-4.691,Lanhydrock,,sw,Cornwall,
137.0,352223,50.9497,-2.0747,Larmer Tree Gardens,,sw,Dorset,
182.0,352224,55.7229,-2.7551,Lauder,,dg,Scottish Borders,
3.0,352232,58.3753,-5.0153,Laxford Bridge,,he,Highland,
44.0,352241,53.8011,-1.547,Leeds,,yh,West Yorkshire,
168.0,352244,53.1089,-2.0219,Leek,,wm,Staffordshire,
79.0,352248,51.4632,-0.6549,Legoland Windsor,,se,Windsor and Maidenhead,
55.0,352249,52.6201,-1.1407,Leicester City F.C.,,em,Leicester,
101.0,352250,52.6225,-1.2225,Leicester Forest East,,em,Leicestershire,
189.0,352255,57.3584,-2.761,Leith Hall Garden And Estate,,gr,Aberdeenshire,
34.0,352259,52.9382,-1.2052,Lenton Abbey,,em,Nottingham,
58.0,352261,51.0193,-0.2534,Leonardslee Gardens,,se,West Sussex,
36.0,352265,55.0706,-6.5365,Leslie Hill Open Farm & Gardens,,ni,County Antrim,
77.0,352268,51.9792,-0.2208,Letchworth Garden City,,ee,Hertfordshire,
9.0,352271,54.2573,-2.7761,Levens Hall,,nw,Cumbria,
53.0,352272,53.4509,-2.1913,Levenshulme,,nw,Greater Manchester,
32.0,352274,50.8734,0.0104,Lewes,South Downs National Park,se,East Sussex,
102.0,352293,52.0553,-0.7703,Linford Wood,,se,Milton Keynes,
54.0,352294,51.1674,-0.0094,Lingfield Park Racecourse,,se,Surrey,
31.0,352296,52.3485,1.4269,Linstead Parva,,ee,Suffolk,
74.0,352299,54.3167,-7.5352,Lisbellaw,,ni,County Fermanagh,
22.0,352304,53.47,-2.9936,Litherland,,nw,Merseyside,
36.0,352305,53.4879,-2.3189,Little Bolton,,nw,Greater Manchester,
108.0,352306,52.481,-1.8248,Little Bromwich,,wm,West Midlands Conurbation,
163.0,352307,53.784,-1.7835,Little Horton,,yh,West Yorkshire,
119.0,352308,51.9687,-0.8485,Little Horwood,,se,Buckinghamshire,
48.0,352316,50.7073,-2.6367,Litton Cheney Youth Hostel,,sw,Dorset,
52.0,352317,53.4312,-2.9563,Liverpool F.C.,,nw,Merseyside,
0.0,352328,53.3054,-4.1478,Llanddona,,wl,Isle of Anglesey,
8.0,352337,51.6805,-4.159,Llanelli,,wl,Carmarthenshire,
146.0,352340,52.7659,-3.2745,Llanfyllin,,wl,Powys,
130.0,352343,52.9616,-3.1394,Llangollen Youth Hostel,,wl,Denbighshire,
179.0,352344,51.9098,-4.736,Llangolman,,wl,Pembrokeshire,
621.0,352361,51.8826,-3.7019,Llyn Y Fan Fawr,Brecon Beacons National Park,wl,Powys,
,352363,58.239,-6.2753,Loch A' Tuath,,he,Na h-Eileanan Siar,
0.0,352367,55.9063,-5.6248,Loch Caolisport,,st,Argyll and Bute,
0.0,352368,57.3829,-5.49,Loch Carron,,he,Highland,
0.0,352369,57.242,-5.4777,Loch Duich,,he,Highland,
,352372,57.1575,-5.9693,Loch Eishort,,he,Highland,
36.0,352379,56.0168,-4.625,Loch Lomond Youth Hostel,Loch Lomond and the Trossachs National Park,st,Argyll and Bute,
,352380,56.1351,-4.8214,Loch Long,,st,Argyll and Bute,
391.0,352386,56.7662,-4.6714,Loch Ossian Youth Hostel,,he,Highland,
,352394,56.5117,-6.2449,Loch Tuath,,st,Argyll and Bute,
110.0,352395,56.3888,-4.2848,Lochearnhead,Loch Lomond and the Trossachs National Park,ta,Stirling,
61.0,352402,51.4863,-2.5679,Lockleaze,,sw,Bristol,
131.0,352403,54.3016,-0.6989,Lockton Youth Hostel,North York Moors National Park,yh,North Yorkshire,
101.0,352404,50.324,-3.8013,Loddiswell,,sw,Devon,
52.0,352408,54.7354,-4.9573,Logan Botanic Garden,,dg,Dumfries and Galloway,
2.0,352410,50.9516,0.9454,London Ashford Airport,,se,Kent,
59.0,352414,51.1511,-0.1768,London Gatwick Airport,,se,West Sussex,
99.0,352420,50.5771,-4.8351,Long Cross Victorian Gardens,,sw,Cornwall,
34.0,352422,52.0739,0.718,Long Melford,,ee,Suffolk,
44.0,352423,52.4871,1.239,Long Stratton,,ee,Norfolk,
179.0,352428,53.0454,-2.2252,Longbridge Hayes,,wm,Staffordshire,
9.0,352430,50.7236,-1.9777,Longfleet,,sw,Poole,
93.0,352441,50.2867,-4.8137,Lost Gardens Of Heligan,,sw,Cornwall,
156.0,352445,55.6286,-4.3794,Loudon Castle Park,,st,East Ayrshire,
10.0,352446,54.6132,-6.4173,Lough Neagh,,ni,County Londonderry,
8.0,352453,54.9545,-1.6271,Low Team,,ne,Gateshead,
86.0,352459,52.3629,-2.7087,Ludlow Youth Hostel,,wm,Shropshire,
131.0,352461,50.6215,-2.2412,Lulworth Cove Youth Hostel,,sw,Dorset,
121.0,352466,52.4556,-1.1976,Lutterworth,,em,Leicestershire,
3.0,352468,50.9507,0.909,Lydd,,se,Kent,
35.0,352471,51.7256,-2.544,Lydney Park,,sw,Gloucestershire,
,352482,56.5057,-5.6244,Lynn Of Morven,,he,Highland,
2.0,352485,53.7498,-3.031,Lytham St. Anne's,,nw,Lancashire,
31.0,352490,51.5012,-3.193,Maendy,,wl,Cardiff,
133.0,352492,51.6082,-3.6592,Maesteg,,wl,Bridgend,
71.0,352493,54.8441,-6.6727,Maghera,,ni,County Londonderry,
145.0,350079,53.8632,-1.5398,Alwoodley,,yh,West Yorkshire,
104.0,350080,56.6259,-3.2254,Alyth,,ta,Perth and Kinross,
1032.0,350082,56.7428,-4.9823,Am Bodach,,he,Highland,
975.0,350090,56.859,-4.2929,A'Mharconaich,Cairngorms National Park,he,Highland,
1006.0,350099,56.9345,-3.7491,An Sgarsoch,Cairngorms National Park,gr,Aberdeenshire,
944.0,350100,56.9055,-3.51,An Socach (Glen Ey),Cairngorms National Park,gr,Aberdeenshire,
6.0,350107,52.2377,0.2402,Anglesey Abbey,,ee,Cambridgeshire,
33.0,350114,54.7193,-6.2069,Antrim,,ni,County Antrim,
1114.0,350118,56.8348,-4.5266,Aonach Beag (Highland),,he,Highland,
65.0,350121,53.8338,-1.7086,Apperley Bridge,,yh,West Yorkshire,
123.0,350123,50.9859,-3.3237,Appley,,sw,Somerset,
39.0,350125,56.8664,-2.3333,Arbuthnott House,,gr,Aberdeenshire,
19.0,350131,56.0226,-5.778,Ardlussa,,st,Argyll and Bute,
165.0,350139,51.1445,-3.9894,Arlington Court,,sw,Devon,
10.0,350145,53.5369,-1.0512,Armthorpe,,yh,South Yorkshire,
30.0,350147,51.439,-2.5613,Arno's Vale,,sw,Bristol,
18.0,350151,50.8547,-0.5536,Arundel,,se,West Sussex,
118.0,350155,53.0163,-1.7307,Ashbourne,,em,Derbyshire,
78.0,350156,50.5153,-3.7502,Ashburton,Dartmoor National Park,sw,Devon,
129.0,350157,52.7489,-1.4671,Ashby De La Zouch,,em,Leicestershire,
51.0,350161,53.4867,-2.6412,Ashton-In-Makerfield,,nw,Greater Manchester,
129.0,350167,53.6064,-2.428,Astley Bridge,,nw,Greater Manchester,
99.0,350169,52.5095,-1.8838,Aston Villa F.C.,,wm,West Midlands Conurbation,
84.0,350170,52.5763,-1.5423,Atherstone,,wm,Warwickshire,
88.0,350173,52.584,-1.4811,Atterton,,em,Leicestershire,
63.0,350179,54.4286,-7.1312,Augher,,ni,County Tyrone,
160.0,350183,51.429,-1.8495,Avebury,,sw,Wiltshire,
87.0,350187,51.326,-2.8093,Avon Ski Centre,,sw,Somerset,
18.0,350193,55.465,-4.6073,Ayr Racecourse,,st,South Ayrshire,
34.0,350207,53.9562,-0.531,Bainton,,yh,East Riding of Yorkshire,
65.0,350212,51.9888,-0.1877,Baldock,,ee,Hertfordshire,
218.0,350217,57.0539,-3.0424,Ballater Ski Slope,Cairngorms National Park,gr,Aberdeenshire,
44.0,350222,54.8635,-6.2777,Ballymena,,ni,County Antrim,
12.0,352496,54.5133,-6.5773,Maghery Country Park,,ni,County Armagh,
218.0,352498,54.0619,-2.1458,Malham Youth Hostel,Yorkshire Dales National Park,yh,North Yorkshire,
105.0,352501,52.5958,-1.3389,Mallory Park,,em,Leicestershire,
100.0,352504,53.4224,-1.1996,Maltby,,yh,South Yorkshire,
74.0,352508,53.3577,-2.2668,Manchester Airport,,nw,Greater Manchester,
52.0,352509,53.4835,-2.2041,Manchester City F.C.,,nw,Greater Manchester,
117.0,352512,52.5565,-1.8229,Maney,,wm,West Midlands Conurbation,
65.0,352513,51.485,-2.5113,Mangotsfield,,sw,South Gloucestershire,
210.0,352514,53.7101,-2.0591,Mankinholes Youth Hostel,,yh,West Yorkshire,
5.0,352530,52.5514,0.0903,March,,ee,Cambridgeshire,
124.0,352534,52.6231,-1.4063,Market Bosworth,,em,Leicestershire,
142.0,352547,53.3971,-2.0602,Marple,,nw,Greater Manchester,
139.0,352556,51.1158,-4.0827,Marwood Hill Gardens,,sw,Devon,
8.0,352559,54.7143,-3.4936,Maryport,,nw,Cumbria,
79.0,352560,54.2232,-1.6542,Masham,,yh,North Yorkshire,
164.0,352568,53.0246,-2.2147,May Bank,,wm,Staffordshire,
926.0,352577,56.5666,-4.2587,Meall A' Choire Leith,,ta,Perth and Kinross,
951.0,352581,56.9616,-4.112,Meall Chuaich,Cairngorms National Park,he,Highland,
968.0,352585,56.635,-4.198,Meall Garbh (968m),,ta,Perth and Kinross,
917.0,352591,56.9895,-4.928,Meall Na Teanga,,he,Highland,
220.0,352597,53.1511,-2.0236,Meerbrook Youth Hostel,Peak District National Park,wm,Staffordshire,
198.0,352600,52.9772,-2.1014,Meir,,wm,Stoke-on-Trent,
88.0,352605,55.5986,-2.7204,Melrose,,dg,Scottish Borders,
0.0,352609,53.1593,-4.2664,Menai Strait,,wl,Gwynedd,
32.0,352617,53.4928,-1.2789,Mexborough,,yh,South Yorkshire,
29.0,352620,60.6004,-1.0664,Mid Yell,,os,Shetland Islands,
106.0,352625,53.7477,-1.5239,Middleton (West Yorkshire),,yh,West Yorkshire,
426.0,352630,55.8812,-3.2168,Midlothian Snowsports Centre,,dg,Midlothian Council,
7.0,352636,55.2112,-6.5227,Mill Rest Youth Hostel,,ni,County Antrim,
139.0,352637,53.4909,-2.0305,Millbrook (Greater Manchester),,nw,Greater Manchester,
6.0,352638,50.9158,-1.4484,Millbrook (Southampton),,se,Southampton,
17.0,350232,53.2271,-4.128,Bangor (Gwynedd),,wl,Gwynedd,
39.0,350234,54.6509,-5.6662,Bangor Castle,,ni,County Down,
58.0,350235,53.2292,-4.1134,Bangor Youth Hostel,,wl,Gwynedd,
34.0,350239,56.0918,-3.907,Bannockburn,,ta,Stirling,
130.0,350242,53.5118,-2.1071,Bardsley,,nw,Greater Manchester,
43.0,350243,55.2651,-4.7462,Bargany Gardens,,st,South Ayrshire,
199.0,350244,51.6845,-3.2284,Bargoed,,wl,Caerphilly,
97.0,350246,52.0272,0.0368,Barley,,ee,Hertfordshire,
165.0,350249,54.5451,-1.9222,Barnard Castle,,ne,Durham,
53.0,350259,52.084,0.3116,Bartlow,,ee,Cambridgeshire,
8.0,350261,53.6864,-0.4417,Barton-Upon-Humber,,yh,North Lincolnshire,
103.0,350267,51.3736,-2.3412,Bath Youth Hostel,,sw,Bath and North East Somerset,
59.0,350269,53.7168,-1.6336,Batley,,yh,West Yorkshire,
195.0,350270,51.9996,-1.7343,Batsford Arboretum,,sw,Gloucestershire,
32.0,350271,55.821,-4.276,Battlefield,,st,Glasgow,
2.0,350279,57.4836,-4.459,Beauly,,he,Highland,
8.0,350281,53.2656,-4.0907,Beaumaris,,wl,Isle of Anglesey,
2.0,350286,51.5145,0.0582,Beckton,,se,Greater London,
70.0,350290,51.0751,0.453,Bedgebury,,se,Kent,
11.0,350292,50.8541,-1.0025,Bedhampton,,se,Hampshire,
100.0,350296,52.481,-1.4674,Bedworth,,wm,Warwickshire,
29.0,350299,52.9236,-1.2109,Beeston (Nottinghamshire),,em,Nottinghamshire,
73.0,350300,53.7738,-1.5636,Beeston (West Yorkshire),,yh,West Yorkshire,
940.0,350310,56.3304,-4.6039,Beinn A' Chroin,Loch Lomond and the Trossachs National Park,ta,Stirling,
1019.0,350313,56.8137,-4.4284,Beinn Bheoil,,he,Highland,
931.0,350317,56.3252,-4.6457,Beinn Chabhair,Loch Lomond and the Trossachs National Park,ta,Stirling,
988.0,350323,56.4502,-5.028,Beinn Eunaich,,st,Argyll and Bute,
1045.0,350330,56.8941,-3.5628,Beinn Iutharn Mhor,,ta,Aberdeenshire,
925.0,350331,57.5163,-5.4006,Beinn Liath Mhor,,he,Highland,
954.0,350332,57.7059,-4.9857,Beinn Liath Mhor Fannaich,,he,Highland,
957.0,350336,56.519,-5.0127,Beinn Nan Aighenan,,st,Argyll and Bute,
926.0,350337,56.2207,-4.7853,Beinn Narnain,Loch Lomond and the Trossachs National Park,st,Argyll and Bute,
52.0,350350,52.6576,-1.1204,Belgrave,,em,Leicester,
0.0,350351,56.001,-2.549,Belhaven Bay,,dg,East Lothian,
72.0,350354,53.7632,-1.5234,Belle Isle,,yh,West Yorkshire,
330.0,350356,50.5768,-3.903,Bellever Youth Hostel,Dartmoor National Park,sw,Devon,
927.0,350369,58.4136,-4.6049,Ben Hope,,he,Highland,
1174.0,350375,56.3877,-4.5399,Ben More (Stirling),Loch Lomond and the Trossachs National Park,ta,Stirling,
1078.0,350379,56.5365,-5.0492,Ben Starav,,he,Argyll and Bute,
25.0,352651,51.2038,-3.4799,Minehead,,sw,Somerset,
100.0,352652,51.1918,-3.474,Minehead Youth Hostel,,sw,Somerset,
50.0,352653,54.9647,-4.4696,Minnigaff Youth Hostel,,dg,Dumfries and Galloway,
79.0,352657,53.6799,-1.6952,Mirfield,,yh,West Yorkshire,
50.0,352667,50.9509,-2.7108,Montacute House,,sw,Somerset,
120.0,352670,53.8321,-1.7955,Moor Head,,yh,West Yorkshire,
161.0,352671,53.7504,-1.7659,Moor Side,,yh,West Yorkshire,
56.0,352675,57.6067,-3.0921,Moray Monster Trails Mountain Bike Trail Centre,,gr,Moray,
3.0,352678,54.074,-2.8636,Morecambe,,nw,Lancashire,
113.0,352679,55.9105,-3.1272,Moredun,,dg,Edinburgh,
12.0,352680,53.4003,-3.1098,Moreton,,nw,Merseyside,
141.0,352683,53.7443,-1.5965,Morley,,yh,West Yorkshire,
28.0,352685,55.1687,-1.6859,Morpeth,,ne,Northumberland,
98.0,352687,53.3272,-1.3596,Mosborough,,yh,South Yorkshire,
84.0,352691,53.557,-2.4011,Moses Gate,,nw,Greater Manchester,
90.0,352697,51.0254,-2.2133,Motcombe,,sw,Dorset,
109.0,352704,51.6812,-3.3719,Mountain Ash,,wl,Rhondda Cynon Taff,
4.0,352708,51.536,0.7396,Mr. B's Amusements Southend-On-Sea,,ee,Southend-on-Sea,
233.0,352715,55.5234,-4.0651,Muirkirk,,st,East Ayrshire,
982.0,352720,57.2848,-5.1855,Mullach Na Dheiragain,,he,Highland,
14.0,352728,50.761,-1.8642,Muscliff,,sw,Bournemouth,
32.0,352739,53.0669,-2.5227,Nantwich,,nw,Cheshire East,
219.0,352754,53.6696,-1.7975,Netheroyd Hill,,yh,West Yorkshire,
121.0,352758,51.3494,-0.0142,New Addington,,se,Greater London,
2.0,352760,53.1032,-0.044,New Bolingbroke,,em,Lincolnshire,
19.0,352762,53.4379,-3.0421,New Brighton (Merseyside),,nw,Merseyside,
136.0,352769,53.3616,-1.9993,New Mills,,em,Derbyshire,
45.0,352772,53.2081,-1.0107,New Ollerton,,em,Nottinghamshire,
3.0,352773,53.4398,-3.0539,New Palace And Adventureland New Brighton,,nw,Merseyside,
94.0,352774,52.6465,-1.1781,New Parks,,em,Leicester,
14.0,352776,52.2152,-4.3579,New Quay,,wl,Ceredigion,
0.0,352779,51.8452,1.2765,New Walton Pier,,ee,Essex,
109.0,352783,51.6648,-3.1428,Newbridge,,wl,Caerphilly,
916.0,350380,56.2497,-4.778,Ben Vane,Loch Lomond and the Trossachs National Park,st,Argyll and Bute,
943.0,350381,56.2746,-4.7515,Ben Vorlich (Argyll & Bute),Loch Lomond and the Trossachs National Park,st,Argyll and Bute,
10.0,350384,54.0202,-1.2117,Beningbrough Hall,,yh,North Yorkshire,
6.0,350389,53.5441,-1.1446,Bentley (South Yorkshire),,yh,South Yorkshire,
132.0,350390,52.5854,-2.0222,Bentley (West Midlands),,wm,West Midlands Conurbation,
232.0,350393,53.3551,-1.5277,Bents Green,,yh,South Yorkshire,
1.0,350399,57.7196,-7.1577,Berneray Youth Hostel,,he,Na h-Eileanan Siar,
40.0,350406,51.1288,0.7557,Bethersden,,se,Kent,
140.0,350407,53.1787,-4.0576,Bethesda,,wl,Gwynedd,
28.0,350410,53.8498,-0.4576,Beverley Racecourse,,yh,East Riding of Yorkshire,
36.0,350413,51.4414,0.1487,Bexley,,se,Greater London,
166.0,350417,53.1189,-2.1702,Biddulph,,wm,Staffordshire,
160.0,350418,53.1296,-2.1595,Biddulph Grange Gardens,,wm,Staffordshire,
170.0,350426,51.3116,0.0344,Biggin Hill,,se,Greater London,
30.0,350431,51.0224,-0.4499,Billingshurst,,se,West Sussex,
73.0,350433,53.4282,-0.1786,Binbrook,,em,Lincolnshire,
93.0,350447,52.4533,-1.7357,Birmingham International Airport,,wm,West Midlands Conurbation,
86.0,350450,53.7294,-1.6611,Birstall Smithies,,yh,West Yorkshire,
27.0,350453,51.5583,-0.7758,Bisham Abbey National Sports Centre,,se,Windsor and Maidenhead,
305.0,350465,54.5011,-3.2435,Black Sail Youth Hostel,Lake District National Park,nw,Cumbria,
49.0,350466,50.9703,0.1707,Blackboys Youth Hostel,,se,East Sussex,
103.0,350468,53.7294,-2.4874,Blackburn Rovers F.C.,,nw,Blackburn with Darwen,
64.0,350470,50.5821,-1.3078,Blackgang Chine,,se,Isle of Wight,
5.0,350474,53.8056,-3.0479,Blackpool F.C.,,nw,Blackpool,
179.0,350478,51.6677,-3.1954,Blackwood,,wl,Caerphilly,
120.0,350483,56.055,-4.7326,Blairnairn,Loch Lomond and the Trossachs National Park,st,Argyll and Bute,
100.0,350484,54.9913,-1.6567,Blakelaw,,ne,Newcastle upon Tyne,
65.0,350489,55.7939,-4.0936,Blantyre,,st,South Lanarkshire,
141.0,350496,52.4029,-1.8061,Blossomfield,,wm,West Midlands Conurbation,
59.0,350502,53.2327,-3.7955,Bodnant Gardens,,wl,Conwy,
12.0,350512,56.0172,-3.607,Bo'Ness,,ta,Falkirk,
61.0,350515,51.0239,-0.1291,Borde Hill Garden,,se,West Sussex,
96.0,350518,54.5186,-3.1494,Borrowdale Youth Hostel,Lake District National Park,nw,Cumbria,
2.0,350521,52.4963,-4.0496,Borth Youth Hostel,,wl,Ceredigion,
,350523,53.0329,0.2982,Boston Deeps,,em,Lincolnshire,
59.0,352791,55.0308,-1.614,Newcastle Racecourse,,ne,Newcastle upon Tyne,
2.0,352799,51.0442,0.9309,Newchurch,,se,Kent,
40.0,352800,51.9289,-2.4032,Newent,,sw,Gloucestershire,
0.0,352801,51.8506,-5.1279,Newgale,,wl,Pembrokeshire,
111.0,352808,52.4455,-1.2899,Newnham Paddox Art Park,,wm,Warwickshire,
14.0,352815,56.4405,-2.9392,Newport-On-Tay,,ta,Fife,
5.0,352817,54.1707,-6.3348,Newry,,ni,County Armagh,
103.0,352818,53.0762,-1.1839,Newstead Abbey,,em,Nottinghamshire,
7.0,352823,50.5418,-3.5927,Newton Abbot Racecourse,,sw,Devon,
81.0,352825,53.4993,-2.1832,Newton Heath,,nw,Greater Manchester,
119.0,352843,53.6999,-1.6914,Norristhorpe,,yh,West Yorkshire,
36.0,352852,55.0107,-1.4476,North Shields,,ne,North Tyneside,
48.0,352858,51.0394,-4.212,Northam,,sw,Devon,
22.0,352859,51.6649,0.8379,Northend,,ee,Essex,
22.0,352864,51.4406,0.3386,Northfleet,,se,Kent,
120.0,352866,52.9775,-2.2196,Northwood (Staffordshire),,wm,Staffordshire,
21.0,352868,54.1326,-0.7817,Norton (North Yorkshire),,yh,North Yorkshire,
195.0,352869,53.3319,-1.4673,Norton (South Yorkshire),,yh,South Yorkshire,
29.0,352871,54.18,-1.5157,Norton Conyers,,yh,North Yorkshire,
156.0,352873,53.3428,-1.4727,Norton Woodseats,,yh,South Yorkshire,
21.0,352880,52.9444,-1.1026,Nottingham Racecourse,,em,Nottingham,
86.0,352893,53.3937,-2.1243,Offerton,,nw,Greater Manchester,
29.0,352898,53.4566,-2.286,Old Trafford Lancashire C.C.C.,,nw,Greater Manchester,
150.0,352899,52.5046,-2.0145,Oldbury,,wm,West Midlands Conurbation,
26.0,352901,55.8488,-4.392,Oldhall,,st,Renfrewshire,
224.0,352908,54.9915,-2.3842,Once Brewed Youth Hostel,Northumberland National Park,ne,Northumberland,
63.0,352915,53.7991,-1.5096,Osmondthorpe,,yh,West Yorkshire,
102.0,352917,53.6809,-1.5774,Ossett,,yh,West Yorkshire,
59.0,352921,53.9056,-1.6903,Otley,,yh,West Yorkshire,
54.0,352922,50.7521,-3.2791,Ottery St. Mary,,sw,Devon,
9.0,352925,60.4257,-0.7467,Out Skerries Airstrip,,os,Shetland Islands,
183.0,352927,53.743,-1.8764,Ovenden,,yh,West Yorkshire,
76.0,352933,51.7629,-1.2295,Oxford Youth Hostel,,se,Oxfordshire,
159.0,352937,53.6477,-1.8133,Paddock,,yh,West Yorkshire,
54.0,350529,55.8062,-4.0714,Bothwell,,st,South Lanarkshire,
8.0,350530,50.9148,-1.2692,Botley,,se,Hampshire,
80.0,350531,52.4234,-0.6729,Boughton House,,em,Northamptonshire,
60.0,350539,53.378,-2.3655,Bowgreen,,nw,Greater Manchester,
96.0,350543,51.4272,-2.0377,Bowood House & Gardens,,sw,Wiltshire,
39.0,350544,51.757,0.3874,Boyton Cross,,ee,Essex,
9.0,350545,57.3603,-6.4055,Bracadale,,he,Highland,
67.0,350548,51.4142,-0.7821,Bracknell Ski & Snowboard Centre,,se,Bracknell Forest,
141.0,350549,53.0594,-2.1736,Bradeley,,wm,Stoke-on-Trent,
57.0,350550,52.6396,0.8458,Bradenham,,ee,Norfolk,
44.0,350553,53.4329,-1.3743,Bradgate,,yh,South Yorkshire,
99.0,350554,53.5745,-2.3679,Bradley Fold,,nw,Greater Manchester,
1296.0,350560,57.0749,-3.7288,Braeriach,Cairngorms National Park,he,Aberdeenshire,
1069.0,350562,56.8332,-3.7263,Braigh Coire Chruinn-Bhalgain,,ta,Perth and Kinross,
69.0,350567,54.9425,-2.7349,Brampton,,nw,Cumbria,
92.0,350572,56.3929,-3.4085,Branklyn Gardens,,ta,Perth and Kinross,
81.0,350577,52.6177,-1.1764,Braunstone,,em,Leicestershire,
75.0,350582,53.5825,-2.3962,Breightmet,,nw,Greater Manchester,
81.0,350585,51.5927,0.2935,Brentwood Leisure Park,,ee,Essex,
322.0,350587,53.297,-1.7046,Bretton Youth Hostel,Peak District National Park,em,Derbyshire,
24.0,350592,51.5039,-3.5757,Bridgend (Bridgend),,wl,Bridgend,
9.0,350597,54.0851,-0.1971,Bridlington,,yh,East Riding of Yorkshire,
148.0,350605,53.3631,-1.5001,Brincliffe,,yh,South Yorkshire,
86.0,350607,53.4305,-2.1303,Brinnington,,nw,Greater Manchester,
29.0,350608,51.4319,-2.5501,Brislington,,sw,Bristol,
197.0,350609,52.4775,-2.0016,Bristnall Fields,,wm,West Midlands Conurbation,
57.0,350611,51.5177,-2.5802,Bristol Filton Airport,,sw,South Gloucestershire,
185.0,350612,51.3829,-2.714,Bristol International Airport,,sw,North Somerset,
7.0,350615,51.6317,-3.8231,Briton Ferry,,wl,Neath Port Talbot,
20.0,350617,51.7853,-5.0939,Broad Haven Youth Hostel,Pembrokeshire Coast National Park,wl,Pembrokeshire,
18.0,350629,50.8184,-1.5743,Brockenhurst,New Forest National Park,se,Hampshire,
60.0,350638,51.405,0.1278,Bromley Ski Centre,,se,Greater London,
65.0,350649,54.8938,-6.2023,Broughshane,,ni,County Antrim,
129.0,350650,52.0458,-1.3934,Broughton Castle,,se,Oxfordshire,
2.0,350651,54.8372,-4.0514,Broughton House (Kirkcudbright),,dg,Dumfries and Galloway,
18.0,350652,54.2775,-3.2099,Broughton In Furness,,nw,Cumbria,
17.0,350658,53.1395,-2.8411,Bruera,,nw,Cheshire West and Chester,
22.0,350665,56.1745,-3.0293,Buckhaven,,ta,Fife,
30.0,350668,50.6305,-3.319,Budleigh Salterton,,sw,Devon,
5.0,350670,52.4551,1.4457,Bungay,,ee,Suffolk,
65.0,350677,50.8238,-1.6892,Burley Youth Hostel,New Forest National Park,se,Hampshire,
41.0,352944,51.4818,-1.0857,Pangbourne,,se,West Berkshire,
100.0,352952,53.3831,-1.448,Park Hill,,yh,South Yorkshire,
38.0,352954,55.9197,-4.4273,Parkhall,,st,West Dunbartonshire,
17.0,352959,55.8742,-4.3092,Partick,,st,Glasgow,
79.0,352962,51.0354,0.4322,Pashley Manor Gardens,,se,East Sussex,
65.0,352963,51.5357,-2.5593,Patchway,,sw,South Gloucestershire,
113.0,352966,54.6953,-6.0218,Patterson's Spade Mill (Nt),,ni,County Antrim,
35.0,352969,50.7927,-0.0036,Peacehaven,,se,East Sussex,
22.0,352973,53.4745,-2.3806,Peel Green,,nw,Greater Manchester,
131.0,352975,50.365,-4.5245,Pelynt,,sw,Cornwall,
49.0,352980,51.4384,-3.1722,Penarth,,wl,Vale of Glamorgan,
51.0,352986,50.8895,-2.6818,Pendomer,,sw,Somerset,
54.0,352987,50.9221,0.4109,Penhurst,,se,East Sussex,
103.0,352993,52.0523,-4.377,Penrhiw-Llan,,wl,Ceredigion,
134.0,352995,52.5002,-2.1336,Pensnett,,wm,West Midlands Conurbation,
51.0,353002,50.1193,-5.5584,Penzance Youth Hostel,,sw,Cornwall,
47.0,353005,50.3437,-5.1585,Perranporth Youth Hostel,,sw,Cornwall,
110.0,353009,54.7623,-1.3274,Peterlee,,ne,Durham,
52.0,353019,55.1467,-4.8317,Pinwherry,,st,South Ayrshire,
63.0,353020,51.9738,-0.3369,Pirton,,ee,Hertfordshire,
112.0,353026,53.4023,-1.4569,Pitsmoor,,yh,South Yorkshire,
26.0,353030,53.2015,-4.2167,Plas Newydd (Anglesey),,wl,Isle of Anglesey,
187.0,353032,53.1028,-3.9151,Plas-Y-Brenin National Centre For The Mountains,Snowdonia National Park,wl,Conwy,
1.0,353035,52.5945,1.7378,Pleasure Beach Great Yarmouth,,ee,Norfolk,
9.0,353037,52.5045,1.7418,Pleasurewood Hills Theme Park Lowestoft,,ee,Suffolk,
123.0,353038,52.5734,-2.0037,Pleck,,wm,West Midlands Conurbation,
35.0,353046,53.9308,-0.7773,Pocklington,,yh,East Riding of Yorkshire,
20.0,353047,50.8235,0.2454,Polegate,,se,East Sussex,
123.0,353048,51.2568,-0.3787,Polesden Lacey,,se,Surrey,
19.0,353051,55.8191,-4.2998,Pollokshaws,,st,Glasgow,
38.0,353056,51.72,-3.852,Pontardawe,,wl,Neath Port Talbot,
17.0,353057,51.7119,-4.0359,Pontarddulais,,wl,Swansea,
113.0,353064,51.6987,-3.0272,Pontypool Ski Centre,,wl,Torfaen,
39.0,353077,54.076,-4.7381,Port St. Mary,,nw,,
26.0,353078,54.4216,-6.4445,Portadown,,ni,County Armagh,
0.0,353079,54.3808,-5.5472,Portaferry,,ni,County Down,
96.0,353082,51.6131,-3.4059,Porth,,wl,Rhondda Cynon Taff,
86.0,350680,53.565,-2.4153,Burnden,,nw,Greater Manchester,
74.0,350688,52.8224,-0.5484,Burton Coggles,,em,Lincolnshire,
80.0,350694,51.6472,-0.3569,Bushey,,ee,Hertfordshire,
7.0,350695,55.2078,-6.5214,Bushmills,,ni,County Antrim,
27.0,350696,51.0991,-2.6871,Butleigh,,sw,Somerset,
317.0,350701,52.4151,-3.8857,Bwlch Nant Yr Arian,,wl,Ceredigion,
1090.0,350704,57.138,-3.5826,Bynack More,Cairngorms National Park,he,Highland,
237.0,350705,55.3132,-2.3688,Byrness Youth Hostel,,ne,Northumberland,
1064.0,350715,56.8955,-3.339,Cairn Of Claise,Cairngorms National Park,gr,Aberdeenshire,
10.0,350720,51.5911,-2.7495,Caldicot,,wl,Monmouthshire,
156.0,350723,50.5018,-4.3146,Callington,,sw,Cornwall,
71.0,350724,51.4389,-2.0025,Calne,,sw,Wiltshire,
84.0,350726,51.3349,-0.7413,Camberley,,se,Surrey,
25.0,350734,51.5392,-0.1425,Camden Town,,se,Greater London,
219.0,350735,50.6216,-4.6812,Camelford,,sw,Cornwall,
67.0,350739,55.0425,-1.5758,Camperdown,,ne,North Tyneside,
42.0,350742,53.4109,-1.3582,Canklow,,yh,South Yorkshire,
9.0,350759,51.4724,-3.2018,Cardiff City F.C.,,wl,Cardiff,
975.0,350776,56.8729,-3.4658,Carn A' Gheoidh,Cairngorms National Park,gr,Perth and Kinross,
1029.0,350790,56.6221,-4.2223,Carn Gorm,,ta,Perth and Kinross,
1042.0,350794,56.6348,-4.1442,Carn Mairg,,ta,Perth and Kinross,
992.0,350798,57.3648,-5.0223,Carn Nan Gobhar (Loch Mullardoch),,he,Highland,
22.0,350800,54.1272,-2.7667,Carnforth,,nw,Lancashire,
9.0,350801,56.5026,-2.7017,Carnoustie,,ta,Angus,
3.0,350802,56.4923,-2.7238,Carnoustie Golf Links,,ta,Angus,
55.0,350806,55.2387,-6.3329,Carrick-A-Rede Rope Bridge (Nt),,ni,County Antrim,
68.0,350813,54.4765,-7.7256,Castle Archdale Country Park,,ni,County Fermanagh,
104.0,350815,52.5025,-1.7903,Castle Bromwich,,wm,West Midlands Conurbation,
53.0,350819,54.3373,-7.6149,Castle Coole (Nt),,ni,County Fermanagh,
60.0,350822,51.9941,0.6015,Castle Hedingham Youth Hostel,,ee,Essex,
130.0,353088,52.5813,-2.0772,Portobello (West Midlands),,wm,West Midlands Conurbation,
1.0,353091,50.7983,-1.1059,Portsea,,se,Portsmouth,
10.0,353092,50.8297,-0.2072,Portslade-By-Sea,,se,Brighton and Hove,
6.0,353093,50.7967,-1.0659,Portsmouth F.C.,,se,Portsmouth,
356.0,353099,50.5948,-3.9041,Postbridge,Dartmoor National Park,sw,Devon,
98.0,353107,50.9779,-2.4981,Poyntington,,sw,Dorset,
4.0,353112,53.3363,-3.4063,Prestatyn,,wl,Denbighshire,
54.0,353114,50.8404,-0.1379,Preston Manor,,se,Brighton and Hove,
49.0,353116,55.9331,-3.1589,Prestonfield,,dg,Edinburgh,
157.0,353122,51.3626,-2.3416,Prior Park Bath,,sw,Bath and North East Somerset,
89.0,353126,54.9621,-1.8457,Prudhoe,,ne,Northumberland,
7.0,353128,50.9568,-0.5091,Pulborough,,se,West Sussex,
143.0,353129,52.0067,-5.069,Pwll Deri Youth Hostel,Pembrokeshire Coast National Park,wl,Pembrokeshire,
38.0,353131,51.5284,-3.6919,Pyle,,wl,Bridgend,
21.0,353135,55.99,-3.3976,Queensferry (Edinburgh),,dg,Edinburgh,
21.0,353142,51.6447,0.5682,R.H.S. Garden Hyde Hall,,ee,Essex,
32.0,353160,54.7501,-6.3193,Randalstown,,ni,County Antrim,
62.0,353174,51.5859,0.6065,Rayleigh,,ee,Essex,
26.0,353176,51.2482,-0.7114,Ash,,se,Surrey,
1.0,353178,54.6155,-1.0516,Redcar,,ne,Redcar and Cleveland,
9.0,353179,54.6057,-1.0609,Redcar Racecourse,,ne,Redcar and Cleveland,
80.0,353184,51.2387,-0.1683,Redhill (Surrey),,se,Surrey,
42.0,353196,57.9242,-6.6797,Rhenigidale Youth Hostel,,he,Na h-Eileanan Siar,
9.0,353202,51.4609,-0.3022,Richmond (Greater London),,se,Greater London,
47.0,353207,51.6383,-0.4726,Rickmansworth,,ee,Hertfordshire,
20.0,353212,50.8477,-1.7834,Ringwood,,se,Hampshire,
65.0,353218,51.6108,-3.0985,Risca,,wl,Caerphilly,
12.0,353223,53.4791,-1.008,Robin Hood Doncaster Sheffield Airport,,yh,South Yorkshire,
68.0,353238,54.2395,-7.1737,Rosslea,,ni,County Fermanagh,
54.0,350825,54.3666,-5.5776,Castle Ward (Nt),,ni,County Down,
312.0,350832,53.3377,-1.7784,Castleton Youth Hostel,Peak District National Park,em,Derbyshire,
176.0,350843,52.4847,-2.0065,Causeway Green,,wm,West Midlands Conurbation,
11.0,350855,50.5445,-4.8266,Chapel Amble,,sw,Cornwall,
117.0,350856,53.5493,-2.3128,Chapel Field,,nw,Greater Manchester,
4.0,350858,53.2235,0.3387,Chapel St. Leonards,,em,Lincolnshire,
118.0,350863,51.8741,-1.4783,Charlbury,,se,Oxfordshire,
29.0,350867,50.7836,0.1572,Charleston Manor,South Downs National Park,se,East Sussex,
154.0,350870,51.2445,0.09,Chartwell,,se,Kent,
59.0,350877,53.3799,-2.1917,Cheadle Hulme,,nw,Greater Manchester,
34.0,350902,50.2727,-3.696,Chillington,,sw,Devon,
47.0,350904,51.4576,-2.1147,Chippenham,,sw,Wiltshire,
100.0,350938,51.9217,-0.9464,Claydon House,,se,Buckinghamshire,
112.0,350942,53.7784,-2.384,Clayton-Le-Moors,,nw,Lancashire,
74.0,350945,53.7228,-1.706,Cleckheaton,,yh,West Yorkshire,
84.0,350951,51.4424,-2.8344,Clevedon Court,,sw,North Somerset,
190.0,350961,52.4262,-3.0259,Clun Mill Youth Hostel,,wm,Shropshire,
5.0,350964,55.9001,-4.4035,Clydebank,,st,West Dunbartonshire,
32.0,350965,53.0203,-4.3638,Clynnog-Fawr,,wl,Gwynedd,
162.0,350967,52.7242,-1.3662,Coalville,,em,Leicestershire,
44.0,350970,54.6631,-3.3666,Cockermouth,,nw,Cumbria,
93.0,353248,53.831,-1.4961,Roundhay,,yh,West Yorkshire,
28.0,353252,56.1603,-4.6422,Rowardennan Youth Hostel,Loch Lomond and the Trossachs National Park,ta,Stirling,
146.0,353253,53.2287,-3.8706,Rowen Youth Hostel,Snowdonia National Park,wl,Conwy,
186.0,353254,54.9394,-2.4919,Rowfoot,,ne,Northumberland,
210.0,353255,52.4883,-2.0446,Rowley Regis,,wm,West Midlands Conurbation,
112.0,353270,51.1318,0.2669,Royal Tunbridge Wells,,se,Kent,
201.0,353277,52.3958,-2.0149,Rubery,,wm,West Midlands Conurbation,
77.0,353280,52.7612,-1.9345,Rugeley,,wm,Staffordshire,
30.0,353281,51.5084,-3.1229,Rumney,,wl,Cardiff,
38.0,353283,52.3971,1.2303,Rushall (Norfolk),,ee,Norfolk,
158.0,353298,54.8164,-1.6249,Sacriston,,ne,Durham,
130.0,353303,50.3116,-5.2114,St Agnes Leisure Park,,sw,Cornwall,
57.0,353314,51.9011,-5.2866,St David's Youth Hostel,Pembrokeshire Coast National Park,wl,Pembrokeshire,
16.0,353319,49.1843,-2.1025,St Helier,,sw,Jersey,
28.0,353323,50.8546,0.5613,St Leonards,,se,East Sussex,
63.0,353326,55.9574,-2.7884,St Mary's Pleasance Haddington,,dg,East Lothian,
28.0,353360,52.8258,0.5134,Sandringham House,,ee,Norfolk,
157.0,353361,52.504,-1.9714,Sandwell,,wm,West Midlands Conurbation,
66.0,353378,51.0975,0.4103,Scotney Castle Garden,,se,Kent,
7.0,353381,54.5734,-5.7054,Scrabo Golf Club,,ni,County Down,
47.0,350974,51.7378,-4.669,Colby Woodland Garden,Pembrokeshire Coast National Park,wl,Pembrokeshire,
83.0,350985,52.613,-0.5288,Collyweston,,em,Northamptonshire,
119.0,351004,54.318,-1.7506,Constable Burton Hall,,yh,North Yorkshire,
49.0,351017,55.9431,-3.29,Corstorphine,,dg,Edinburgh,
124.0,351018,55.9536,-3.2753,Corstorphine Hill,,dg,Edinburgh,
110.0,351025,53.83,-1.8193,Cottingley,,yh,West Yorkshire,
88.0,351031,52.4288,-1.4771,Court House Green,,wm,West Midlands Conurbation,
11.0,351032,52.416,0.1897,Coveney,,ee,Cambridgeshire,
127.0,351036,56.1144,-3.3404,Cowdenbeath,,ta,Fife,
100.0,351040,52.1203,-2.4004,Cradley (Herefordshire),,wm,Herefordshire,
129.0,351041,52.4595,-2.0861,Cradley (West Midlands),,wm,West Midlands Conurbation,
53.0,351047,57.6102,-5.7258,Craig Youth Hostel,,he,Highland,
35.0,351048,54.4474,-6.372,Craigavon,,ni,County Armagh,
27.0,351056,55.9752,-3.2982,Cramond,,dg,Edinburgh,
58.0,351058,50.9194,-1.9279,Cranborne Manor Gardens,,sw,Dorset,
70.0,351059,51.0951,0.5393,Cranbrook,,se,Kent,
118.0,351063,52.4398,-2.8319,Craven Arms,,wm,Shropshire,
947.0,351065,57.1216,-5.1657,Creag A' Mhaim,,he,Highland,
27.0,351072,50.7046,-3.4179,Crealy Adventure Park Devon,,sw,Devon,
70.0,351077,51.4556,-2.5328,Crew's Hole,,sw,Bristol,
181.0,351078,56.3889,-4.6057,Crianlarich Youth Hostel,Loch Lomond and the Trossachs National Park,ta,Stirling,
21.0,351079,52.9193,-4.2324,Criccieth,,wl,Gwynedd,
83.0,351080,51.8561,-3.1342,Crickhowell,Brecon Beacons National Park,wl,Powys,
11.0,351083,57.619,-1.9345,Crimonmogate,,gr,Aberdeenshire,
21.0,351086,53.4573,-2.3611,Crofts Bank,,nw,Greater Manchester,
152.0,351087,58.3299,-3.3905,Crofts Of Benachielt,,he,Highland,
146.0,351099,51.795,-4.0881,Cross Hands,,wl,Carmarthenshire,
2.0,351101,53.6708,-2.955,Crossens,,nw,Merseyside,
111.0,351105,51.9962,-4.7326,Crosswell,Pembrokeshire Coast National Park,wl,Pembrokeshire,
21.0,351113,53.4414,-2.888,Croxteth Hall,,nw,Merseyside,
88.0,351119,51.4213,-0.0702,Crystal Palace National Sports Centre,,se,Greater London,
973.0,353417,57.2272,-6.2336,Sgurr A' Ghreadaidh,,he,Highland,
986.0,353428,57.214,-6.2357,Sgurr Dearg,,he,Highland,
1059.0,353433,57.7998,-5.257,Sgurr Fiona,,he,Highland,
1003.0,353434,57.0268,-5.3486,Sgurr Mor (1003m),,he,Highland,
1040.0,353440,57.0127,-5.4529,Sgurr Na Ciche,,he,Highland,
956.0,353449,56.9347,-5.4482,Sgurr Nan Coireachan (Glen Finnan),,he,Highland,
1110.0,353450,57.1774,-5.1005,Sgurr Nan Conbhairean,,he,Highland,
1.0,353466,51.4396,0.7658,Sheerness,,se,Kent,
84.0,353467,53.3809,-1.4686,Sheffield,,yh,South Yorkshire,
124.0,353468,53.4246,-1.4604,Sheffield Lane Top,,yh,South Yorkshire,
144.0,353470,53.4,-1.4711,Sheffield Ski Village,,yh,South Yorkshire,
100.0,353475,51.4657,-2.1616,Sheldon Manor,,sw,Wiltshire,
70.0,353483,52.9264,1.1668,Sheringham Park,,ee,Norfolk,
117.0,353508,52.535,-1.8552,Short Heath,,wm,West Midlands Conurbation,
54.0,351127,50.8548,-3.3904,Cullompton,,sw,Devon,
197.0,351133,54.8512,-2.7021,Cumrew,,nw,Cumbria,
30.0,351135,52.236,1.4838,Curlew Green,,ee,Suffolk,
165.0,351143,52.5743,-1.9354,Daisy Bank,,wm,West Midlands Conurbation,
50.0,351164,54.5235,-1.5579,Darlington,,ne,Darlington,
22.0,351177,50.5818,-3.4632,Dawlish,,sw,Devon,
160.0,351188,53.5743,-1.6514,Denby Dale,,yh,West Yorkshire,
1155.0,351197,57.0652,-3.6221,Derry Cairngorm,Cairngorms National Park,gr,Aberdeenshire,
156.0,351209,53.0317,-2.2258,Dimsdale,,wm,Staffordshire,
13.0,351210,51.4334,-3.2145,Dinas Powys,,wl,Vale of Glamorgan,
89.0,351225,52.8296,-1.379,Donington Park,,em,Leicestershire,
139.0,351234,51.3295,0.0487,Down House,,se,Greater London,
141.0,351236,50.825,-3.7846,Down St. Mary,,sw,Devon,
8.0,351240,54.3117,-5.7266,Downpatrick Racecourse,,ni,County Down,
29.0,351270,55.8362,-4.3032,Dumbreck,,st,Glasgow,
81.0,351275,56.4759,-2.9733,Dundee F.C.,,ta,Dundee,
19.0,353558,52.5215,1.6779,Somerleyton Hall & Gardens,,ee,Suffolk,
,353568,56.8337,-7.5999,Sound Of Mingulay,,he,Na h-Eileanan Siar,
22.0,353599,50.7243,-1.7942,Southbourne,,sw,Bournemouth,
4.0,353604,53.6455,-3.0087,Southport,,nw,Merseyside,
82.0,353626,55.8872,-4.2295,Springburn,,st,Glasgow,
200.0,353640,54.1015,-2.2746,Stainforth (North Yorkshire),Yorkshire Dales National Park,yh,North Yorkshire,
64.0,353647,51.0383,-1.3876,Standon,,se,Hampshire,
,353663,50.2739,-3.6179,Start Bay,,sw,Devon,
39.0,353666,50.9931,-0.7724,Stedham,South Downs National Park,se,West Sussex,
49.0,353668,55.9333,-3.2609,Stenhouse,,dg,Edinburgh,
12.0,353669,51.5175,-0.044,Stepney,,se,Greater London,
100.0,353670,50.6818,-3.697,Steps Bridge Youth Hostel,Dartmoor National Park,sw,Devon,
67.0,353676,56.1268,-3.9445,Stirling Youth Hostel (Union Street),,ta,Stirling,
59.0,351285,56.3128,-3.583,Dunning,,ta,Perth and Kinross,
144.0,351288,51.8852,-0.5188,Dunstable,,ee,Central Bedfordshire,
34.0,351311,50.7564,-1.9,East Howe,,sw,Bournemouth,
41.0,351318,53.682,-1.4828,East Moor,,yh,West Yorkshire,
32.0,351326,53.3171,-2.9616,Eastham,,nw,Merseyside,
93.0,351330,53.0178,-1.307,Eastwood (Nottinghamshire),,em,Nottinghamshire,
144.0,351337,53.8224,-1.7143,Eccleshill,,yh,West Yorkshire,
47.0,351365,54.4808,-3.5276,Egremont,,nw,Cumbria,
10.0,351368,56.1905,-2.8206,Elie,,ta,Fife,
277.0,351380,53.1443,-1.659,Elton Youth Hostel,Peak District National Park,em,Derbyshire,
43.0,351391,51.3356,-0.2658,Epsom,,se,Surrey,
19.0,351397,55.9093,-4.4611,Erskine,,st,Renfrewshire,
78.0,351406,55.0758,-3.0048,Evertown,,dg,Dumfries and Galloway,
286.0,351416,51.1308,-3.6395,Exford Youth Hostel,Exmoor National Park,sw,Somerset,
5.0,351419,52.6123,-0.1862,Eye (Peterborough),,ee,Peterborough,
94.0,351423,53.5079,-2.163,Failsworth,,nw,Greater Manchester,
99.0,351425,53.5969,-2.2674,Fairfield (Nr Bury),,nw,Greater Manchester,
1165.0,353682,56.371,-4.5376,Stob Binnein,Loch Lomond and the Trossachs National Park,ta,Stirling,
925.0,353684,56.6525,-4.95,Stob Choire Raineach,,he,Highland,
1072.0,353689,56.6379,-5.0105,Stob Coire Sgreamhach,,he,Highland,
60.0,353710,53.5452,-2.3729,Stoneclough,,nw,Greater Manchester,
90.0,353717,52.6157,-1.1052,Stoneygate,,em,Leicester,
40.0,353721,50.9178,-0.4528,Storrington,,se,West Sussex,
34.0,353733,52.1811,-1.7244,Stratford Racecourse,,wm,Warwickshire,
19.0,353740,51.1242,-2.7416,Street,,sw,Somerset,
33.0,353746,58.961,-3.3021,Stromness Youth Hostel,,os,Orkney Islands,
12.0,353747,59.1549,-2.6394,Stronsay Airfield,,os,Orkney Islands,
44.0,353753,53.4989,-2.6152,Stubshaw Cross,,nw,Greater Manchester,
24.0,353767,54.9141,-1.3872,Sunderland A.F.C.,,ne,Sunderland,
60.0,353768,54.8812,-1.4134,Sunderland Ski Centre,,ne,Sunderland,
43.0,353795,53.4883,-1.316,Swinton (South Yorkshire),,yh,South Yorkshire,
4.0,353800,51.4749,-0.3149,Syon House,,se,Greater London,
85.0,353810,56.7151,-2.8584,Tannadice,,ta,Angus,
110.0,353832,51.6389,-2.1568,Tetbury,,sw,Gloucestershire,
90.0,351437,53.5324,-2.7103,Far Moor,,nw,Greater Manchester,
57.0,351438,53.7811,-1.6008,Far Royds,,yh,West Yorkshire,
100.0,351440,51.6581,-1.5832,Faringdon,,se,Oxfordshire,
70.0,351450,52.9095,1.265,Felbrigg Hall,,ee,Norfolk,
8.0,351452,52.486,0.5211,Feltwell,,ee,Norfolk,
70.0,351465,55.9253,-4.6214,Finlaystone House,,st,Inverclyde,
933.0,351468,57.6101,-5.1016,Fionn Bheinn,,he,Highland,
,351474,52.0146,-4.9499,Fishguard Bay,,wl,Pembrokeshire,
84.0,351476,53.5855,-2.2929,Fishpool,,nw,Greater Manchester,
65.0,351502,56.6436,-2.8876,Forfar,,ta,Angus,
45.0,351510,60.1231,-2.0522,Foula Airstrip,,os,Shetland Islands,
1.0,351527,51.4731,-0.2175,Fulham F.C.,,se,Greater London,
213.0,351529,53.3668,-1.5362,Fulwood,,yh,South Yorkshire,
919.0,351533,57.041,-5.2541,Gairich,,he,Highland,
39.0,351549,53.3926,-2.2432,Gatley,,nw,Greater Manchester,
926.0,351555,57.0583,-4.3725,Geal Charn (926m),Cairngorms National Park,he,Highland,
134.0,351566,52.4607,-1.8007,Gilbertstone,,wm,West Midlands Conurbation,
1068.0,351578,56.8722,-3.3696,Glas Maol,,ta,Angus,
7.0,351583,55.5082,-4.5937,Glasgow Prestwick Airport,,st,South Ayrshire,
126.0,353837,53.8427,-1.7328,Thackley,,yh,West Yorkshire,
77.0,353843,52.5591,-1.7314,The Belfry Golf Club,,wm,Warwickshire,
15.0,353851,51.0172,-3.1021,The County Ground Somerset C.C.C.,,sw,Somerset,
30.0,353860,55.66,-2.2735,The Hirsel,,dg,Scottish Borders,
58.0,353868,50.9233,-1.3255,Hampshire C.C.C.,,se,Hampshire,
464.0,353878,54.5596,-3.0423,Thirlmere Youth Hostel,Lake District National Park,nw,Cumbria,
33.0,353879,54.232,-1.3606,Thirsk Racecourse,,yh,North Yorkshire,
67.0,353885,55.2459,-3.7678,Thornhill (Dumfries & Galloway),,dg,Dumfries and Galloway,
58.0,353897,52.0822,-2.3121,Three Counties Showground,,wm,Worcestershire,
110.0,353911,51.2393,-1.6611,Tidworth,,sw,Wiltshire,
301.0,353937,57.3425,-4.0067,Tomatin Distillery,,he,Highland,
108.0,353945,53.5586,-2.1953,Top Of Hebers,,nw,Greater Manchester,
94.0,353949,53.3784,-2.1013,Torkington,,nw,Greater Manchester,
88.0,353965,52.1294,-0.9707,Towcester Racecourse,,em,Northamptonshire,
183.0,353974,51.6746,-3.5359,Treherbert,,wl,Rhondda Cynon Taff,
28.0,351594,57.221,-6.2909,Glenbrittle Youth Hostel,,he,Highland,
617.0,351596,56.6246,-4.8254,Glencoe Mountain Resort,,he,Highland,
258.0,351599,56.8694,-3.1816,Glendoll Lodge,,ta,Angus,
40.0,351600,50.1062,-5.1151,Glendurgan Garden,,sw,Cornwall,
244.0,351604,55.6513,-3.1382,Glentress,,dg,Scottish Borders,
1035.0,351606,57.0957,-5.2347,Gleouraich,,he,Highland,
25.0,351609,51.8937,-2.1637,Gloucestershire Airport,,sw,Gloucestershire,
53.0,351611,50.8798,0.0561,Glyndebourne,South Downs National Park,se,East Sussex,
99.0,351612,52.7851,-2.2545,Gnosall,,wm,Staffordshire,
46.0,351613,51.1853,-0.6113,Godalming,,se,Surrey,
38.0,351617,53.4752,-2.5968,Golborne,,nw,Greater Manchester,
140.0,351620,52.5395,-2.0197,Golds Green,,wm,West Midlands Conurbation,
1.0,351622,57.9736,-3.9747,Golspie,,he,Highland,
24.0,351623,53.2895,-0.3176,Goltho House Gardens,,em,Lincolnshire,
32.0,351628,53.528,-2.6477,Goose Green,,nw,Greater Manchester,
2.0,351629,55.8517,-4.2484,Gorbals,,st,Glasgow,
18.0,351639,51.6476,-4.0417,Gowerton,,wl,Swansea,
150.0,351657,52.548,-1.9305,Great Barr,,wm,West Midlands Conurbation,
50.0,351663,52.5366,0.9792,Great Ellingham,,ee,Norfolk,
186.0,351667,53.7838,-1.7979,Great Horton,,yh,West Yorkshire,
184.0,351681,53.3283,-1.4792,Greenhill,,yh,South Yorkshire,
90.0,351684,53.1812,-4.1891,Greenwood Forest Park (Y Felinheli),,wl,Gwynedd,
18.0,351688,54.5345,-5.5544,Grey Abbey Physic Garden,,ni,County Down,
0.0,351695,57.8826,-5.5131,Gruinard Bay,,he,Highland,
58.0,351716,57.4052,-2.2204,Haddo House,,gr,Aberdeenshire,
11.0,351728,52.3429,1.5044,Halesworth,,ee,Suffolk,
140.0,351732,52.4271,-1.8414,Hall Green,,wm,West Midlands Conurbation,
159.0,353981,51.6593,-3.5048,Treorchy,,wl,Rhondda Cynon Taff,
20.0,353987,50.5269,-5.0203,Treyarnon Bay Youth Hostel,,sw,Cornwall,
9.0,353995,50.7284,-1.7981,Tuckton,,sw,Bournemouth,
87.0,354014,57.5846,-6.3508,Uig Youth Hostel,,he,Highland,
7.0,354015,57.8971,-5.1567,Ullapool Youth Hostel,,he,Highland,
117.0,354030,51.2958,-1.4807,Upton (Hampshire),,se,Hampshire,
122.0,354038,53.882,-1.9217,Utley,,yh,West Yorkshire,
5.0,354046,50.5162,-4.8353,Wadebridge,,sw,Cornwall,
85.0,354055,53.5236,-2.3977,Walkden,,nw,Greater Manchester,
26.0,354063,54.9914,-1.5278,Wallsend,,ne,North Tyneside,
20.0,354070,51.6846,0.0043,Waltham Abbey,,ee,Essex,
20.0,354075,51.4571,-0.2044,Wandsworth,,se,Greater London,
91.0,354077,51.5884,-1.425,Wantage,,se,Oxfordshire,
246.0,354100,53.5537,-2.0772,Watersheddings,,nw,Greater Manchester,
63.0,354101,51.6561,-0.3888,Watford (Hertfordshire),,ee,Hertfordshire,
137.0,354109,52.5526,-2.0206,Wednesbury,,wm,West Midlands Conurbation,
121.0,354112,56.5244,-2.8581,Wellbank,,ta,Angus,
103.0,354114,52.4488,-1.7894,Wells Green,,wm,West Midlands Conurbation,
41.0,354121,51.5501,-0.3033,Wembley,,se,Greater London,
0.0,354122,50.317,-4.085,Wembury,,sw,Devon,
150.0,351759,53.2889,-2.1854,Hare Hill,,nw,Cheshire East,
71.0,351764,52.8586,-4.1066,Harlech,Snowdonia National Park,wl,Gwynedd,
64.0,351771,51.5801,-0.3404,Harrow,,se,Greater London,
130.0,351775,53.6022,-2.3802,Harwood,,nw,Greater Manchester,
124.0,351776,53.6047,-2.3887,Harwood Lee,,nw,Greater Manchester,
85.0,351781,51.7629,-0.2215,Hatfield (Hertfordshire),,ee,Hertfordshire,
10.0,351791,51.8015,-4.9675,Haverfordwest,,wl,Pembrokeshire,
122.0,351800,52.4634,-1.8235,Hay Mills,,wm,West Midlands Conurbation,
51.0,351810,53.5075,-2.3628,Hazelhurst,,nw,Greater Manchester,
79.0,351811,53.8179,-1.5743,Headingley,,yh,West Yorkshire,
225.0,351815,53.6383,-2.178,Healey,,nw,Greater Manchester,
193.0,351825,53.8156,-1.8001,Heaton (West Yorkshire),,yh,West Yorkshire,
74.0,351832,51.3392,-0.9586,Heckfield,,se,Hampshire,
58.0,351854,52.0705,-2.7274,Hereford Racecourse,,wm,Herefordshire,
169.0,351868,53.4952,-2.0465,Heyrod,,nw,Greater Manchester,
1.0,351884,50.737,-1.693,Highcliffe,,se,Dorset,
81.0,354143,51.2759,-1.9901,West Lavington,,sw,Wiltshire,
80.0,354149,51.1937,-2.3171,West Woodlands,,sw,Somerset,
5.0,354160,51.4982,-0.1323,Westminster,,se,Greater London,
92.0,354166,53.0225,-1.221,Westville,,em,Nottinghamshire,
54.0,354192,53.821,-1.6379,Whitecote,,yh,West Yorkshire,
110.0,354194,53.5519,-2.2978,Whitefield,,nw,Greater Manchester,
32.0,354199,55.2327,-6.414,Whitepark Bay Youth Hostel,,ni,County Antrim,
61.0,354204,50.4181,-4.1494,Whitleigh,,sw,Plymouth,
0.0,354207,50.3338,-4.275,Whitsand Bay,,sw,Cornwall,
57.0,354218,52.3815,-0.7062,Wicksteed Park,,em,Northamptonshire,
,354220,59.022,-3.0308,Wide Firth,,os,Orkney Islands,
239.0,354221,50.5745,-3.811,Widecombe In The Moor,Dartmoor National Park,sw,Devon,
63.0,354230,52.0626,-0.7189,Willen,,se,Milton Keynes,
53.0,354235,55.0065,-1.5053,Willington (Tyne & Wear),,ne,North Tyneside,
71.0,354237,53.3277,-2.228,Wilmslow,,nw,Cheshire East,
52.0,354238,51.0785,-1.8612,Wilton,,sw,Wiltshire,
114.0,354248,54.3805,-2.9054,Windermere,Lake District National Park,nw,Cumbria,
132.0,354276,51.9841,-0.5939,Woburn Abbey,,ee,Central Bedfordshire,
160.0,351921,51.1954,-0.4215,Holmbury St. Mary Youth Hostel,,se,Surrey,
25.0,351930,54.6428,-5.8238,Holywood,,ni,County Down,
38.0,351949,53.0378,-2.8129,Horton Green,,nw,Cheshire West and Chester,
62.0,351964,58.9107,-3.331,Hoy Youth Hostel,,os,Orkney Islands,
120.0,351977,57.4461,-2.7863,Huntly,,gr,Aberdeenshire,
3.0,351992,50.7398,-1.8103,Iford,,sw,Bournemouth,
90.0,351999,53.9253,-1.8213,Ilkley,,yh,West Yorkshire,
363.0,352016,56.9869,-3.5167,Inverey Youth Hostel,Cairngorms National Park,gr,Aberdeenshire,
12.0,352017,57.1035,-5.7241,Inverguseran,,he,Highland,
170.0,354280,53.0297,-2.2147,Wolstanton,,wm,Staffordshire,
85.0,354284,52.5332,-2.1859,Wombourne,,wm,Staffordshire,
66.0,354304,55.5468,-2.0107,Wooler,,ne,Northumberland,
119.0,354307,53.6037,-2.327,Woolfold,,nw,Greater Manchester,
6.0,354318,50.8174,-0.3713,Worthing,,se,West Sussex,
25.0,354322,53.286,-0.2985,Wragby,,em,Lincolnshire,
90.0,354324,54.8316,-2.8787,Wreay,,nw,Cumbria,
149.0,354328,52.0694,-1.3938,Wroxton Abbey,,se,Oxfordshire,
133.0,354329,51.6158,-0.7337,Wycombe Summit Ski & Snowboarding Centre,,se,Buckinghamshire,
53.0,354349,50.9416,-2.632,Yeovil,,sw,Somerset,
150.0,354354,53.1719,-1.6825,Youlgreave Youth Hostel,Peak District National Park,em,Derbyshire,
108.0,352066,51.6744,-2.0147,Kemble,,sw,Gloucestershire,
44.0,352071,54.314,-2.7442,Kendal Youth Hostel,,nw,Cumbria,
137.0,352072,55.1696,-4.1785,Kendoon Youth Hostel,,dg,Dumfries and Galloway,
33.0,352078,58.084,-6.5125,Kershader Youth Hostel,,he,Na h-Eileanan Siar,
54.0,352092,55.7554,-4.6847,Kilbirnie,,st,North Ayrshire,
164.0,352096,50.8766,-4.4814,Kilkhampton,,sw,Cornwall,
41.0,352105,54.9531,-6.5551,Kilrea,,ni,County Londonderry,
10.0,352123,50.5486,-3.5972,Kingsteignton,,sw,Devon,
2.0,352126,53.7453,-0.3353,Kingston Upon Hull,,yh,Kingston upon Hull,
97.0,352141,55.5508,-2.2722,Kirk Yetholm Youth Hostel,,dg,Scottish Borders,
15.0,352144,53.107,-0.3795,Kirkby Green,,em,Lincolnshire,
125.0,352168,51.8695,-0.2137,Knebworth House,,ee,Hertfordshire,
76.0,352180,51.433,-2.5632,Knowle (Bristol),,sw,Bristol,
476.0,371546,53.3648,-1.7694,Lose Hill,Peak District National Park,em,Derbyshire,
785.0,371569,55.448,-3.3417,Molls Cleuch Dod,,dg,Scottish Borders,
556.0,371578,54.8508,-6.8493,Mullaghmore,,ni,County Londonderry,
654.0,371590,54.6926,-2.0955,Outberry Plain,,ne,Durham,
892.0,371602,54.4973,-3.2798,Pillar,Lake District National Park,nw,Cumbria,
737.0,371612,54.5407,-3.2339,Robinson,Lake District National Park,nw,Cumbria,
320.0,371614,54.5053,-1.1057,Roseberry Topping,North York Moors National Park,ne,North Yorkshire,
454.0,371616,54.4062,-1.0843,Round Hill,North York Moors National Park,yh,North Yorkshire,
764.0,371629,56.9545,-6.3095,Sgurr Nan Gillean,,he,Highland,
483.0,371630,50.4688,-3.9616,Shell Top,Dartmoor National Park,sw,Devon,
674.0,371641,54.1599,-6.0393,Slieve Much,,ni,County Armagh,
676.0,371652,55.5871,-3.2212,Stob Law,,dg,Scottish Borders,
5.0,371677,51.3639,-2.9065,Weston-Super-Mare No 2,,sw,North Somerset,
467.0,371686,53.6667,-2.2653,Whittle Hill,,nw,Lancashire,
854.0,371336,52.9168,-3.7447,Arenig Fawr,Snowdonia National Park,wl,Gwynedd,
610.0,371340,52.2649,-3.152,Bache Hill,,wl,Powys,
620.0,371343,54.4589,-2.2687,Bastifell,,nw,Cumbria,
826.0,371347,55.6217,-5.2415,Beinn Tarsuinn,,st,North Ayrshire,
582.0,371354,53.5385,-1.882,Black Hill,Peak District National Park,yh,Derbyshire,
710.0,371357,55.2489,-4.1942,Black Shoulder,,dg,Dumfries and Galloway,
569.0,371371,53.3627,-1.8742,Brown Knoll,Peak District National Park,em,Derbyshire,
564.0,371385,54.7726,-6.9498,Carnanelly,,ni,County Tyrone,
430.0,371400,54.4002,-1.0643,Cockayne Ridge,North York Moors National Park,yh,North Yorkshire,
748.0,371420,55.5462,-3.5013,Culter Fell,,dg,Scottish Borders,
778.0,371431,54.3702,-3.1353,Dow Crag,Lake District National Park,nw,Cumbria,
519.0,371440,51.1623,-3.5855,Dunkery Beacon,Exmoor National Park,sw,Somerset,
873.0,371450,54.497,-2.9902,Fairfield,Lake District National Park,nw,Cumbria,
616.0,371469,51.8452,-3.8288,Garreg Lwyd,Brecon Beacons National Park,wl,Carmarthenshire,
1001.0,371474,53.1012,-4.0279,Glyder Fawr,Snowdonia National Park,wl,Gwynedd,
527.0,371493,50.6098,-3.8331,Hameldown Tor,Dartmoor National Park,sw,Devon,
797.0,371501,54.4844,-3.3202,Haycock,Lake District National Park,nw,Cumbria,
714.0,371502,55.4719,-2.0888,Hedgehope Hill,Northumberland National Park,ne,Northumberland,
762.0,371507,54.4758,-3.1099,High Raise,Lake District National Park,nw,Cumbria,
802.0,371508,54.5132,-2.8524,High Raise,Lake District National Park,nw,Cumbria,
608.0,371510,54.5525,-3.1024,High Seat,Lake District National Park,nw,Cumbria,
507.0,371516,53.2897,-1.9061,Hob Tor,,em,Derbyshire,
51.0,371527,51.6254,-2.3662,Kingswood,,sw,Gloucestershire,
786.0,371530,55.1523,-4.4785,Kirriereoch Hill,,dg,Dumfries and Galloway,
517.0,371531,55.1622,-6.2494,Knocklayd,,ni,County Antrim,
0.0,354555,50.0851,-5.3171,Porthleven - West (Beach),,sw,Cornwall,
0.0,354563,50.2342,-4.7904,Gorran Haven - Vault Beach (Beach),,sw,Cornwall,
0.0,354566,50.2884,-4.7821,Pentewan Sands (Beach),,sw,Cornwall,
0.0,354582,51.1032,-4.225,Saunton Sands (Beach),,sw,Devon,
0.0,354588,50.2604,-3.858,Thurlestone - South (Beach),,sw,Devon,
0.0,354599,50.4431,-3.5567,Paignton - Preston Sands (Beach),,sw,Torbay,
0.0,354604,50.4959,-3.5154,Watcombe (Beach),,sw,Torbay,
0.0,354623,50.6311,-2.3554,Ringstead Bay (Beach),,sw,Dorset,
0.0,354627,50.6534,-1.953,Studland - Knoll Beach (Beach),,sw,Dorset,
0.0,354630,50.7103,-2.0071,Poole Harbour - Hamworthy Park (Beach),,sw,Poole,
0.0,354648,50.6918,-1.5353,Colwell Bay (Beach),,se,Isle of Wight,
0.0,354653,50.6699,-1.0969,Whitecliff Bay (Beach),,se,Isle of Wight,
0.0,354659,50.7225,-1.5981,Milford-On-Sea (Beach),,se,Hampshire,
0.0,354663,50.8008,-1.2038,Lee-On-Solent (Beach),,se,Hampshire,
0.0,354670,50.7609,-0.8604,Bracklesham Bay (Beach),,se,West Sussex,
0.0,354671,50.7278,-0.78,Selsey (Beach),,se,West Sussex,
0.0,354676,50.8022,-0.5282,Littlehampton (Beach),,se,West Sussex,
0.0,354685,50.8109,0.3516,Pevensey Bay (Beach),,se,East Sussex,
0.0,354692,51.0653,1.0836,Hythe (Beach),,se,Kent,
0.0,354697,51.2819,1.3801,Sandwich Bay (Beach),,se,Kent,
0.0,354709,51.528,0.759,Southend - Thorpe Bay (Beach),,ee,Southend-on-Sea,
0.0,354712,51.8058,1.0127,Brightlingsea (Beach),,ee,Essex,
0.0,354727,52.646,1.737,Caister Point (Beach),,ee,Norfolk,
0.0,354728,52.6921,1.7115,Hemsby (Beach),,ee,Norfolk,
0.0,354736,53.2237,0.3399,Chapel St Leonards (Beach),,em,Lincolnshire,
0.0,354738,53.2826,0.3111,Moggs Eye (Huttoft Beach) (Beach),,em,Lincolnshire,
0.0,354740,53.3429,0.2656,Mablethorpe Town (Beach),,em,Lincolnshire,
0.0,354748,54.169,-0.2498,Reighton (Beach),,yh,North Yorkshire,
0.0,354751,54.293,-0.4056,Scarborough North Bay (Beach),,yh,North Yorkshire,
0.0,354752,54.4921,-0.6241,Whitby (Beach),,yh,North Yorkshire,
0.0,354753,54.5016,-0.6678,Sandsend (Beach),,yh,North Yorkshire,
0.0,354788,53.2947,-3.64,Llanddulas (Beach),,wl,Conwy,
0.0,354799,53.3738,-4.5563,Church Bay (Beach),,wl,Isle of Anglesey,
0.0,354829,51.9692,-5.0838,Aber Mawr Bay (Beach),,wl,Pembrokeshire,
0.0,354390,49.1878,-2.0334,Grouville (Beach),,sw,Jersey,
0.0,354392,49.1802,-2.1689,Portelet (Beach),,sw,Jersey,
0.0,354400,57.9156,-3.9987,Embo Beach,,he,Highland,
0.0,354405,58.17,-5.3061,Achmelvich Bay (Beach),,he,Highland,
0.0,354407,57.6947,-2.837,Cullen (Beach),,gr,Moray,
0.0,354416,55.407,-4.7586,Dunure (Beach),,st,South Ayrshire,
0.0,354418,55.6377,-4.7982,Saltcoats (Beach),,st,North Ayrshire,
0.0,354421,55.9635,-4.7916,Gourock (Beach),,st,Inverclyde,
0.0,354422,55.346,-4.8094,Culzean (Beach),,st,South Ayrshire,
0.0,354444,57.5021,-1.7912,Peterhead Lido (Beach),,gr,Aberdeenshire,
0.0,354451,56.5005,-2.7019,Carnoustie (Beach),,gr,Angus,
0.0,354454,56.0641,-3.1852,Kinghorn - Pettycur (Beach),,ta,Fife,
0.0,354458,56.0391,-2.843,Gullane (Beach),,dg,East Lothian,
0.0,354460,56.052,-2.6364,Seacliff (Beach),,dg,East Lothian,
0.0,354472,51.4886,-3.7251,Porthcawl - Rest Bay (Beach),,wl,Bridgend,
0.0,354481,51.7156,-4.6918,Coppet Hall (Beach),,wl,Pembrokeshire,
0.0,354502,51.7818,-5.1037,Broadhaven (Beach),,wl,Pembrokeshire,
0.0,354505,51.8953,-5.2965,Whitesands (Beach),,wl,Pembrokeshire,
0.0,354507,51.1308,-4.2402,Croyde (Beach),,sw,Devon,
0.0,354509,51.16,-4.2147,Woolacombe (Beach),,sw,Devon,
0.0,354515,51.3732,-2.9661,Weston-Super-Mare - Sand Bay (Beach),,sw,North Somerset,
0.0,354517,51.2398,-3.0054,Burnham-On-Sea - Jetty (Beach),,sw,Somerset,
0.0,354538,50.4164,-5.1002,Newquay - Fistral (Beach),,sw,Cornwall,
0.0,354544,50.2124,-5.4075,The Towans - Godrevy (Beach),,sw,Cornwall,
708.0,354840,54.3843,-2.374,Wild Boar Fell,Yorkshire Dales National Park,nw,Cumbria,
30.0,354854,54.0956,-6.1888,Kilbroney Park Rostrevor,The Mournes,ni,County Armagh,
2.0,354860,51.6985,-4.8305,Carew Castle And Tidal Mill,Pembrokeshire Coast National Park,wl,Pembrokeshire,
650.0,354878,51.9994,-3.1361,Lord Hereford's Knob,Brecon Beacons National Park,wl,Powys,
312.0,354881,51.8191,-3.3704,Pontsticill Reservoir,Brecon Beacons National Park,wl,Powys,
268.0,354897,52.947,-3.6517,National White Water Centre (Bala),Snowdonia National Park,wl,Gwynedd,
343.0,354910,51.9702,-4.6833,Foel Drygarn,Pembrokeshire Coast National Park,wl,Pembrokeshire,
219.0,354920,51.9447,-3.0364,Llanthony Priory,Brecon Beacons National Park,wl,Monmouthshire,
94.0,354929,53.9814,-1.8916,Bolton Abbey,Yorkshire Dales National Park,yh,North Yorkshire,
294.0,354934,54.079,-1.9711,Gassington Moor,Yorkshire Dales National Park,yh,North Yorkshire,
289.0,354940,54.1774,-2.3369,Long Churn Cave,Yorkshire Dales National Park,yh,North Yorkshire,
150.0,354941,54.0197,-2.2549,Long Preston,Yorkshire Dales National Park,yh,North Yorkshire,
308.0,354944,54.2058,-2.3607,Ribblehead,Yorkshire Dales National Park,yh,North Yorkshire,
378.0,354966,50.4168,-3.8756,Ugborough Beacon,Dartmoor National Park,sw,Devon,
222.0,354969,50.5435,-3.8065,Buckland In The Moor,Dartmoor National Park,sw,Devon,
226.0,354970,50.5001,-4.0375,Burrator Reservoir,Dartmoor National Park,sw,Devon,
263.0,354971,50.7024,-4.0396,Meldon Reservoir,Dartmoor National Park,sw,Devon,
34.0,354985,51.1846,-3.4443,Dunster,Exmoor National Park,sw,Somerset,
70.0,354992,50.8264,-1.7017,Burley,New Forest National Park,se,Hampshire,
6.0,354999,56.003,-4.5835,Balloch,Loch Lomond and the Trossachs National Park,st,West Dunbartonshire,
81.0,355865,51.42282,-0.94788,Crosfields School,,se,Reading,
51.0,355873,56.432655,-2.935311,Newport Primary School,,ta,Fife,
7.0,3066,57.6494,-3.5606,Kinloss,,gr,Moray,
36.0,3075,58.454,-3.089,Wick John O Groats Airport,,he,Highland,LNDSYN
140.0,3080,57.077,-2.836,Aboyne,,gr,Aberdeenshire,
17.0,3105,55.681,-6.256,Islay Airport,,st,Argyll and Bute,LNDSYN
564.0,3148,56.423,-4.32,Glen Ogle,Loch Lomond and the Trossachs National Park,ta,Stirling,
146.0,3238,55.02,-1.88,Albemarle,,ne,Northumberland,
158.0,3275,54.563,-0.863,Loftus (Samos),,ne,Redcar and Cleveland,
262.0,3281,54.362,-0.673,Fylingdales,North York Moors National Park,yh,North Yorkshire,
216.0,3305,53.093,-3.941,Capel Curig,Snowdonia National Park,wl,Conwy,
1040.0,3308,53.068,-4.077,Snowdon Summit,Snowdonia National Park,wl,Gwynedd,
109.0,7,52.0703,-0.6267,Cranfield,,ee,Central Bedfordshire,
22.0,26,53.3336,-2.85,Liverpool John Lennon Airport,,nw,Merseyside,
63.0,34,53.3944,-1.3886,Sheffield Airport,,yh,South Yorkshire,
73.0,3462,52.6111,-0.459,Wittering,,ee,Peterborough,
17.0,3495,52.756,1.356,Coltishall,,ee,Norfolk,
75.0,3522,52.083,-2.8,Hereford,,wm,Herefordshire,
35.0,3529,52.148,-2.04,Pershore,,wm,Worcestershire,
57.0,3658,51.62,-1.097,Benson,,se,Oxfordshire,
2.0,3693,51.554,0.83,Shoeburyness,,ee,Essex,LNDSYN
91.0,3749,51.149,-1.57,Middle Wallop,,se,Hampshire,
117.0,3796,51.133,1.348,Langdon Bay,,se,Kent,
31.0,3803,49.913,-6.301,Scilly St Marys,,sw,Isles of Scilly,
87.0,3808,50.218,-5.33,Camborne,,sw,Cornwall,
103.0,3817,50.438,-4.999,Newquay Cornwall Airport,,sw,Cornwall,
200.0,3823,50.502,-4.667,Cardinham,,sw,Cornwall,
252.0,3840,50.86,-3.239,Dunkeswell Aerodrome,,sw,Devon,
10.0,3862,50.779,-1.835,Bournemouth Airport,,sw,Dorset,LNDSYN
4.0,3872,50.815,-0.923,Thorney Island,,se,West Sussex,
52.0,3882,50.89,0.319,Herstmonceux West End,,se,East Sussex,
4.0,3908,55.057,-7.008,Ballykelly Samos,,ni,County Londonderry,
120.0,310002,52.4859,-1.889,Birmingham,,wm,West Midlands Conurbation,
15.0,310016,50.3713,-4.1348,Plymouth,,sw,Plymouth,
3.0,310031,50.7825,-0.6716,Bognor Regis,,se,West Sussex,
67.0,310035,51.4156,-0.7525,Bracknell,,se,Bracknell Forest,
78.0,320282,51.8152,-0.8069,Aylesbury,,se,Buckinghamshire,
99.0,320283,52.0625,-1.3383,Banbury,,se,Oxfordshire,
2.0,320284,51.0777,-4.0571,Barnstaple,,sw,Devon,
19.0,320301,54.0464,-2.7993,Lancaster,,nw,Lancashire,
19.0,320305,52.1096,-2.0734,Pershore,,wm,Worcestershire,
6.0,321979,55.6439,-4.8106,Ardrossan,,st,North Ayrshire,
102.0,310054,52.4902,-0.6822,Corby,,em,Northamptonshire,
43.0,310060,54.1518,-4.484,Douglas (Isle Of Man),,nw,,
40.0,310073,51.3858,0.5531,Gillingham (Kent),,se,Medway,
15.0,310074,51.8638,-2.2368,Gloucester,,sw,Gloucestershire,
19.0,310078,55.9565,-4.7707,Greenock,,st,Inverclyde,
4.0,310079,53.5672,-0.0791,Grimsby,,yh,North East Lincolnshire,
11.0,310115,52.6305,1.2991,Norwich,,ee,Norfolk,
2.0,310120,52.569,-0.2388,Peterborough,,ee,Peterborough,
2.0,310122,50.7922,-1.0949,Portsmouth,,se,Portsmouth,
5.0,310184,55.4241,-5.6042,Campbeltown,,st,Argyll and Bute,
18.0,310193,57.6496,-3.317,Elgin,,gr,Moray,
81.0,322018,50.9169,0.4853,Battle,,se,East Sussex,
96.0,322041,50.4681,-4.714,Bodmin,,sw,Cornwall,
26.0,322049,52.95,-0.84,Bottesford,,em,Nottinghamshire,
254.0,322052,55.95,-4.5,Bowling,,st,West Dunbartonshire,
11.0,322063,50.7331,-2.757,Bridport,,sw,Dorset,
83.0,322099,57.1008,-2.1135,Charlestown,,gr,Aberdeenshire,
30.0,310216,50.415,-5.0726,Newquay,,sw,Cornwall,
24.0,310233,50.2113,-5.4813,St. Ives,,sw,Cornwall,
4.0,322194,53.9165,-3.0343,Fleetwood,,nw,Lancashire,
43.0,322294,51.7596,-0.0134,Hoddesdon,,ee,Hertfordshire,
91.0,324149,51.2491,-0.7529,Aldershot,,se,Hampshire,
12.0,324159,56.1141,-3.7905,Alloa,,ta,Clackmannanshire,
23.0,324165,53.0897,-3.7994,Betws-Y-Coed,Snowdonia National Park,wl,Conwy,
53.0,324167,52.5341,-2.4231,Bridgnorth,,wm,Shropshire,
130.0,324176,51.3485,-1.9934,Devizes,,sw,Wiltshire,
115.0,324192,53.9919,-1.5403,Harrogate,,yh,North Yorkshire,
120.0,324196,51.4119,-1.5165,Hungerford,,se,West Berkshire,
144.0,324202,53.2584,-2.1178,Macclesfield,,nw,Cheshire East,
110.0,324204,53.1469,-1.1971,Mansfield,,em,Nottinghamshire,
10.0,324209,56.0584,-2.7182,North Berwick,,dg,East Lothian,
60.0,324212,53.6915,-1.3071,Pontefract,,yh,West Yorkshire,
25.0,324220,56.0289,-3.8094,Stenhousemuir,,ta,Falkirk,
10.0,324225,51.9919,-2.1566,Tewkesbury,,sw,Gloucestershire,
37.0,324239,51.3156,-0.5594,Woking,,se,Surrey,
161.0,324242,53.6952,-2.4673,Darwen,,nw,Blackburn with Darwen,
99.0,324246,53.5842,-2.4272,Bolton,,nw,Greater Manchester,
69.0,324248,51.0071,-0.9375,Petersfield,South Downs National Park,se,Hampshire,
74.0,324250,52.6471,0.6892,Swaffham,,ee,Norfolk,
120.0,324267,50.867,-2.9611,Chard,,sw,Somerset,
100.0,324276,51.23,-3.83,Lynmouth,Exmoor National Park,sw,Devon,
220.0,324281,54.3145,-2.08,Askrigg,Yorkshire Dales National Park,yh,North Yorkshire,
39.0,322818,51.7435,-2.2776,Stonehouse,,sw,Gloucestershire,
64.0,324055,51.2322,-0.3295,Dorking,,se,Surrey,
50.0,324060,51.0624,-0.3243,Horsham,,se,West Sussex,
5.0,324077,52.2425,-4.2569,Aberaeron,,wl,Ceredigion,
1.0,322381,51.43,0.6,Kingsnorth,,se,Medway,
3.0,322462,50.8105,-0.5371,Littlehampton,,se,West Sussex,
15.0,322690,51.3351,1.4216,Ramsgate,,se,Kent,
27.0,3839,50.737,-3.405,Exeter Airport,,sw,Devon,
131.0,99107,53.383,-1.483,Sheffield Cdl,,yh,South Yorkshire,
175.0,99116,54.105,-0.641,High Mowthorpe,,yh,North Yorkshire,
12.0,99130,54.245,-5.83,Murlough,,ni,County Down,
10.0,324306,56.6239,-6.527,Arinagour Isle Of Coll,,st,Argyll and Bute,
42.0,300689,55.8062,-4.57112,Howwood,,st,Renfrewshire,
14.0,350006,50.6602,-2.611,Abbotsbury Sub-Tropical Gardens,,sw,Dorset,
21.0,350027,57.9968,-5.3138,Achininver Youth Hostel,,he,Highland,
5.0,350058,53.263,0.185,Alford (Lincolnshire),,em,Lincolnshire,
226.0,350064,53.8029,-1.8197,Allerton (West Yorkshire),,yh,West Yorkshire,
197.0,324245,53.5443,-2.1173,Oldham,,nw,Greater Manchester,
11.0,324061,52.3311,-0.1809,Huntingdon,,ee,Cambridgeshire,
68.0,3377,53.175,-0.521,Waddington,,em,Lincolnshire,
15.0,321976,56.5592,-2.59,Arbroath,,ta,Angus,
3.0,99006,56.45,-5.433,Dunstaffnage,,st,Argyll and Bute,
6.0,301886,56.4634,-5.3994,Oban Airport,,st,Argyll and Bute,
15.0,354363,51.48593,-0.05096,Millwall F.C.,,se,Greater London,
80.0,354366,50.86157,-0.08371,Brighton And Hove Albion,,se,Brighton and Hove,
105.0,354375,55.886,-3.5219,Livingston F.C.,,dg,West Lothian,
38.0,354380,51.558,-0.283,Wembley Arena,,se,Greater London,
178.0,354382,53.7813,-1.7305,Bowling,,yh,West Yorkshire,
170.0,352194,53.7921,-1.716,Laisterdyke,,yh,West Yorkshire,
6.0,352216,52.6965,-0.3381,Langtoft,,em,Lincolnshire,
187.0,352219,52.4513,-2.0231,Lapal,,wm,West Midlands Conurbation,
110.0,352222,55.7377,-3.9703,Larkhall,,st,South Lanarkshire,
103.0,352230,54.2283,-4.4035,Laxey,,nw,,
112.0,352231,54.2309,-4.4159,Laxey Glen,,nw,,
65.0,352240,52.0335,-2.4222,Ledbury,,wm,Herefordshire,
91.0,352242,51.2436,0.6253,Leeds Castle Gardens,,se,Kent,
87.0,352251,52.6008,-1.0939,Leicester Racecourse,,em,Leicestershire,
84.0,352260,52.2253,-2.7414,Leominster,,wm,Herefordshire,
9.0,352270,56.1964,-2.9951,Leven,,ta,Fife,
3.0,352273,53.0064,0.086,Leverton,,em,Lincolnshire,
82.0,352280,52.6813,-1.8302,Lichfield,,wm,Staffordshire,
8.0,352286,50.7075,-1.9439,Lilliput,,sw,Poole,
20.0,352287,55.0518,-6.9509,Limavady,,ni,County Londonderry,
85.0,352319,53.7098,-1.6955,Liversedge,,yh,West Yorkshire,
126.0,352322,53.1178,-4.1263,Llanberis,,wl,Gwynedd,
210.0,352323,53.1127,-4.1318,Llanberis Youth Hostel,,wl,Gwynedd,
19.0,352324,51.4923,-3.2132,Llandaff,,wl,Cardiff,
28.0,352330,51.889,-3.9865,Llandeilo,,wl,Carmarthenshire,
73.0,352334,53.3286,-3.8371,Llandudno Ski & Snowboard Centre,,wl,Conwy,
92.0,352335,52.0428,-4.3081,Llandysul,,wl,Ceredigion,
139.0,352338,52.6451,-3.325,Llanfair Caereinion,,wl,Powys,
,352375,57.824,-5.6446,Loch Ewe,,he,Highland,
,352377,57.13,-5.6155,Loch Hourn,,he,Highland,
,352383,56.4627,-6.0601,Loch Na Keal,,st,Argyll and Bute,
136.0,352396,56.1302,-3.3046,Lochgelly,,ta,Fife,
1155.0,352399,56.9571,-3.2442,Lochnagar,Cairngorms National Park,gr,Aberdeenshire,
160.0,352416,51.8746,-0.3708,London Luton Airport,,ee,Luton,
12.0,352417,51.5696,0.6955,London Southend Airport,,ee,Essex,
2.0,352424,52.789,0.1215,Long Sutton,,em,Lincolnshire,
67.0,352425,52.275,0.9499,Long Thurlow,,ee,Suffolk,
120.0,352429,52.6521,-2.8211,Longden,,wm,Shropshire,
63.0,352439,51.2158,-0.6058,Loseley House,,se,Surrey,
58.0,352444,53.8157,-1.3156,Lotherton Hall,,yh,West Yorkshire,
158.0,352450,53.4222,-1.6027,Low Bradfield,Peak District National Park,yh,South Yorkshire,
986.0,352463,57.413,-5.2242,Lurg Mhor,,he,Highland,
21.0,352477,53.3815,-2.4786,Lymm,,nw,Warrington,
50.0,352478,50.8721,-1.5754,Lyndhurst,New Forest National Park,se,Hampshire,
344.0,352491,53.1409,-3.1797,Maeshafn Youth Hostel,,wl,Flintshire,
66.0,352495,54.1968,-7.2848,Magheraveely,,ni,County Fermanagh,
935.0,350081,57.2474,-6.2007,Am Basteir,,he,Highland,
920.0,350101,57.2574,-5.1679,An Socach (Highland),,he,Highland,
1238.0,350117,56.7981,-4.9508,Aonach Beag (1238m),,he,Highland,
150.0,350124,53.365,-1.4433,Arbourthorne,,yh,South Yorkshire,
53.0,350126,56.3751,-5.0916,Ardanaiseig Gardens,,st,Argyll and Bute,
27.0,350127,56.4648,-5.2885,Ardchattan Gardens,,st,Argyll and Bute,
94.0,350128,55.8391,-5.0348,Ardencraig Gardens,,st,Argyll and Bute,
57.0,350143,54.8073,-2.7686,Armathwaite,,nw,Cumbria,
161.0,350175,55.4734,-4.2973,Auchinleck,,st,East Ayrshire,
59.0,350177,56.2923,-3.2346,Auchtermuchty,,ta,Fife,
210.0,350185,57.1946,-3.8224,Aviemore,Cairngorms National Park,he,Highland,
364.0,350211,54.5527,-2.1129,Baldersdale Youth Hostel,,ne,Durham,
0.0,350215,55.1058,-5.0169,Ballantrae Bay,,st,South Ayrshire,
43.0,350223,55.0716,-6.508,Ballymoney,,ni,County Antrim,
39.0,350227,53.7357,-2.6645,Bamber Bridge,,nw,Lancashire,
31.0,352505,54.1366,-0.7963,Malton,,yh,North Yorkshire,
142.0,352506,52.0927,-2.3312,Malvern Hills Youth Hostel,,wm,Worcestershire,
1.0,352516,51.9553,1.345,Mannings Amusement Park,,ee,Suffolk,
981.0,352525,57.1258,-5.2505,Maol Chinn-Dearg,,he,Highland,
115.0,352529,50.7926,-2.6966,Mapperton Gardens,,sw,Dorset,
47.0,352533,51.477,0.0040,Greenwich Park,,se,Greater London,
92.0,352540,54.2954,-6.5201,Markethill,,ni,County Armagh,
50.0,352545,51.7247,-5.2156,Marloes Sands Youth Hostel,Pembrokeshire Coast National Park,wl,Pembrokeshire,
40.0,352548,54.9781,-1.388,Marsden (Tyne & Wear),,ne,South Tyneside,
42.0,352557,55.8982,-4.3015,Maryhill,,st,Glasgow,
63.0,352558,53.5576,-2.6268,Marylebone,,nw,Greater Manchester,
84.0,352565,53.1778,0.0377,Mavis Enderby,,em,Lincolnshire,
928.0,352569,56.8508,-3.2478,Mayar,,ta,Angus,
45.0,352574,55.7636,-6.0465,Mcarthur's Head Lighthouse,,st,Argyll and Bute,
946.0,352579,57.0352,-5.5411,Meall Buidhe (Highland),,he,Highland,
926.0,352594,56.5599,-4.939,Meall Nan Eun,,st,Argyll and Bute,
49.0,352603,52.0831,0.7308,Melford Hall,,ee,Suffolk,
21.0,352608,53.2224,-4.1643,Menai Bridge,,wl,Isle of Anglesey,
104.0,352610,51.09,-2.2656,Mere,,sw,Wiltshire,
5.0,352616,50.2696,-4.7863,Mevagissey,,sw,Cornwall,
77.0,352623,53.5457,-2.2005,Middleton (Greater Manchester),,nw,Greater Manchester,
5.0,352634,50.7252,-1.5883,Milford On Sea,,se,Hampshire,
123.0,352640,53.3476,-1.5005,Millhouses,,yh,South Yorkshire,
10.0,352641,54.2119,-3.2715,Millom,,nw,Cumbria,
151.0,352644,53.6105,-2.1151,Milnrow,,nw,Greater Manchester,
17.0,350233,54.6629,-5.6619,Bangor (North Down),,ni,County Down,
16.0,350236,52.9947,-2.9291,Bangor-On-Dee Racecourse,,wl,Wrexham,
0.0,350255,57.0232,-7.4442,Barra (Traigh Mhr) Airport,,he,Na h-Eileanan Siar,
44.0,350265,50.9892,0.377,Bateman's,,se,East Sussex,
141.0,350268,55.9024,-3.6417,Bathgate,,dg,West Lothian,
63.0,350274,50.8101,-2.7446,Beaminster,,sw,Dorset,
59.0,350275,55.9217,-4.3342,Bearsden,,st,East Dunbartonshire,
67.0,350276,55.9299,-4.3342,Bearsden Ski Centre,,st,East Dunbartonshire,
171.0,350278,53.3316,-1.4892,Beauchief,,yh,South Yorkshire,
69.0,350291,51.0759,0.4583,Bedgebury National Pinetum,,se,Kent,
59.0,350293,55.1316,-1.5979,Bedlington,,ne,Northumberland,
22.0,350294,51.4382,-2.6021,Bedminster,,sw,Bristol,
188.0,350297,52.4721,-1.9706,Beech Lane,,wm,West Midlands Conurbation,
1081.0,350309,56.5563,-4.6451,Beinn A' Chreachain,,ta,Perth and Kinross,
1157.0,350315,57.0071,-3.7187,Beinn Bhrotain,Cairngorms National Park,gr,Aberdeenshire,
1101.0,350322,56.8261,-4.5379,Beinn Eibhinn,,he,Highland,
1032.0,350324,57.221,-5.2825,Beinn Fhada,,he,Highland,
959.0,350325,56.5998,-5.1116,Beinn Fhionnlaidh (Argyll & Bute),,st,Argyll and Bute,
1103.0,350327,56.5378,-4.2353,Beinn Ghlas,,ta,Perth and Kinross,
1076.0,350328,56.5122,-4.5778,Beinn Heasgarnich,,ta,Perth and Kinross,
1010.0,350343,56.8338,-4.3269,Beinn Udlamain,,ta,Perth and Kinross,
86.0,350344,55.7538,-4.6305,Beith,,st,North Ayrshire,
966.0,350374,56.423,-6.0143,Ben More (Argyll & Bute),,st,Argyll and Bute,
284.0,352672,53.5642,-2.0709,Moorside (Nr Oldham),,nw,Greater Manchester,
104.0,352674,53.8178,-1.6273,Moorside (West Yorkshire),,yh,West Yorkshire,
73.0,352693,53.3651,-2.2464,Moss Nook,,nw,Greater Manchester,
89.0,352696,53.512,-2.1846,Moston,,nw,Greater Manchester,
30.0,352699,51.044,-1.5344,Mottisfont Abbey,,se,Hampshire,
939.0,352701,56.9699,-2.9709,Mount Keen,Cairngorms National Park,gr,Aberdeenshire,
50.0,352703,55.845,-4.1232,Mount Vernon,,st,Glasgow,
11.0,352738,57.5866,-3.867,Nairn,,he,Highland,
121.0,352753,53.3581,-1.4922,Nether Edge,,yh,South Yorkshire,
47.0,352768,54.9433,-4.8493,New Luce,,dg,Dumfries and Galloway,
195.0,352771,51.8952,-4.809,New Moat,,wl,Pembrokeshire,
151.0,352775,57.5921,-2.1977,New Pitsligo,,gr,Aberdeenshire,
5.0,352787,54.2163,-5.8901,Newcastle,,ni,County Down,
49.0,350386,53.3216,-4.2246,Benllech,,wl,Isle of Anglesey,
69.0,350392,55.0243,-1.5304,Benton Square,,ne,North Tyneside,
171.0,350394,51.1578,-1.0497,Bentworth,,se,Hampshire,
97.0,350396,54.9739,-1.6613,Benwell,,ne,Newcastle upon Tyne,
14.0,350408,53.8417,-0.4335,Beverley,,yh,East Riding of Yorkshire,
28.0,350411,52.3752,-2.3156,Bewdley,,wm,Worcestershire,
72.0,350414,51.8992,-1.1521,Bicester,,se,Oxfordshire,
83.0,350415,50.8465,-3.5168,Bickleigh Castle,,sw,Devon,
1150.0,350420,56.6437,-5.0321,Bidean Nam Bian,,he,Highland,
1062.0,350421,57.8079,-5.2483,Bidein A' Ghlas Thuill,,he,Highland,
200.0,350422,53.7669,-1.7306,Bierley,,yh,West Yorkshire,
1128.0,350438,56.7557,-4.9218,Binnein Mor,,he,Highland,
38.0,350459,50.9522,-1.2123,Bishop's Waltham,,se,Hampshire,
41.0,350467,53.467,-2.6893,Blackbrook,,nw,Merseyside,
77.0,350469,53.5658,-2.2896,Blackford Bridge,,nw,Greater Manchester,
158.0,350486,52.5731,-2.1302,Blakenhall,,wm,West Midlands Conurbation,
103.0,350513,55.8749,-3.1049,Bonnyrigg,,dg,Midlothian Council,
55.0,352793,54.9781,-1.6162,Newcastle Upon Tyne,,ne,Newcastle upon Tyne,
30.0,352804,55.8146,-4.2786,Newlands,,st,Glasgow,
8.0,352840,52.6148,1.3238,Norfolk Ski Centre,,ee,Norfolk,
0.0,352844,58.348,-6.626,North Bragar,,he,Na h-Eileanan Siar,
31.0,352845,53.3561,-1.1125,North Carlton,,em,Nottinghamshire,
2.0,352846,50.8164,-1.081,North End,,se,Portsmouth,
183.0,352903,53.55,-2.1186,Oldham Edge,,nw,Greater Manchester,
68.0,352912,51.3744,0.0958,Orpington,,se,Greater London,
82.0,352913,53.5408,-2.7074,Orrell,,nw,Greater Manchester,
91.0,352929,51.2427,-1.2618,Overton,,se,Hampshire,
62.0,352930,53.4049,-1.4936,Owlerton,,yh,South Yorkshire,
120.0,352934,52.6126,-2.136,Oxley,,wm,West Midlands Conurbation,
50.0,350542,54.3646,-2.9182,Bowness-On-Windermere,Lake District National Park,nw,Cumbria,
260.0,350546,54.1453,-2.2807,Brackenbottom,Yorkshire Dales National Park,yh,North Yorkshire,
114.0,350547,52.027,-1.1416,Brackley,,em,Northamptonshire,
355.0,350559,57.0006,-3.3868,Braemar Youth Hostel,Cairngorms National Park,gr,Aberdeenshire,
96.0,350569,54.7481,-1.6192,Brandon (Durham),,ne,Durham,
6.0,350575,53.7895,-0.326,Bransholme,,yh,Kingston upon Hull,
15.0,350578,51.1076,-4.1598,Braunton,,sw,Devon,
151.0,350598,53.8214,-2.2353,Brierfield,,nw,Lancashire,
42.0,350626,51.3578,1.4317,Broadstairs Youth Hostel,,se,Kent,
132.0,350637,53.6129,-2.4073,Bromley Cross,,nw,Greater Manchester,
150.0,350654,52.6457,-1.9296,Brownhills,,wm,West Midlands Conurbation,
157.0,350661,53.041,-4.0247,Bryn Gwynant Youth Hostel,Snowdonia National Park,wl,Gwynedd,
343.0,350662,51.7947,-3.1743,Brynmawr,,wl,Blaenau Gwent,
17.0,350676,53.1617,0.2405,Burgh Le Marsh,,em,Lincolnshire,
136.0,352943,52.5734,-1.977,Palfrey,,wm,West Midlands Conurbation,
54.0,352983,50.1478,-5.0475,Pendennis Youth Hostel,,sw,Cornwall,
67.0,352991,53.2663,-3.9194,Penmaenmawr,,wl,Conwy,
12.0,353011,52.5767,1.5668,Pettitts Animal Adventure Park Reedham,,ee,Norfolk,
89.0,353012,57.3096,-2.1611,Pettymuick,,gr,Aberdeenshire,
110.0,353023,56.7045,-3.7283,Pitlochry,,ta,Perth and Kinross,
122.0,353028,50.5159,-3.5622,Plant World,,sw,Devon,
110.0,353031,52.9648,-3.161,Plas Newydd (Llangollen),,wl,Denbighshire,
40.0,353039,50.9288,-0.0692,Plumpton Racecourse,,se,East Sussex,
14.0,353044,50.3856,-4.0501,Plympton,,sw,Plymouth,
60.0,353045,50.8194,-3.346,Plymtree,,sw,Devon,
16.0,353050,55.8336,-4.3462,Pollok,,st,Glasgow,
40.0,353053,55.9961,-3.6884,Polmonthill Ski Slope,,ta,Falkirk,
43.0,353055,51.7924,-4.2602,Pontantwn,,wl,Carmarthenshire,
32.0,353058,53.7017,-1.3372,Pontefract Racecourse,,yh,West Yorkshire,
152.0,353063,51.6973,-3.0374,Pontypool,,wl,Torfaen,
157.0,353066,52.5999,-1.9192,Pool Green,,wm,West Midlands Conurbation,
10.0,353084,51.4786,-3.7039,Porthcawl,,wl,Bridgend,
6.0,350682,51.6279,0.8162,Burnham-On-Crouch,,ee,Essex,
133.0,350693,52.6187,-2.1155,Bushbury,,wm,West Midlands Conurbation,
200.0,350697,54.6278,-1.8359,Butterknowle,,ne,Durham,
314.0,350703,53.154,-3.5289,Bylchau,,wl,Conwy,
1291.0,350716,57.0516,-3.711,Cairn Toul,Cairngorms National Park,gr,Aberdeenshire,
88.0,350718,53.4972,-0.3138,Caistor,,em,Lincolnshire,
78.0,350722,56.2451,-4.2103,Callander,Loch Lomond and the Trossachs National Park,ta,Stirling,
,350749,58.5477,-4.3325,Caol Raineach,,he,Highland,
34.0,350757,53.4054,-1.4204,Carbrook,,yh,South Yorkshire,
1037.0,350777,57.0364,-3.6533,Carn A' Mhaim,Cairngorms National Park,gr,Aberdeenshire,
1019.0,350781,56.9094,-3.3592,Carn An Tuirc,Cairngorms National Park,gr,Aberdeenshire,
939.0,350785,56.7625,-4.5873,Carn Dearg (939m),,he,Highland,
217.0,350809,54.7075,-2.9898,Carrock Fell Youth Hostel,Lake District National Park,nw,Cumbria,
100.0,353100,53.8209,-1.5428,Potternewton,,yh,West Yorkshire,
81.0,353102,52.4341,-1.4475,Potter's Green,,wm,West Midlands Conurbation,
149.0,353105,54.9205,-1.7839,Powerline Mountain Bike Trail,,ne,Gateshead,
50.0,353110,53.3722,-3.037,Prenton,,nw,Merseyside,
156.0,353113,52.2717,-3.0038,Presteigne,,wl,Powys,
8.0,353117,55.9595,-2.983,Prestonpans,,dg,East Lothian,
107.0,353140,52.1704,-0.8542,Quinton Green,,em,Northamptonshire,
70.0,353148,51.6864,-0.3158,Radlett,,ee,Hertfordshire,
65.0,353150,51.2916,-2.4447,Radstock,,sw,Bath and North East Somerset,
70.0,353151,52.1973,-1.8971,Ragley Hall,,wm,Warwickshire,
15.0,353155,52.5252,1.2496,Rainthorpe Hall,,ee,Norfolk,
38.0,353175,51.4216,-0.9816,Reading F.C.,,se,Reading,
6.0,353192,55.8753,-4.3902,Renfrew,,st,Renfrewshire,
78.0,353193,53.3021,-1.3433,Renishaw Hall & Gardens,,em,Derbyshire,
101.0,353204,53.3662,-1.3901,Richmond (South Yorkshire),,yh,South Yorkshire,
133.0,353221,53.6992,-1.701,Roberttown,,yh,West Yorkshire,
6.0,353225,51.3875,0.5084,Rochester,,se,Medway,
10.0,353227,51.5816,0.7082,Rochford,,ee,Essex,
130.0,353230,52.5141,-0.7051,Rockingham Motor Speedway,,em,Northamptonshire,
12.0,353233,51.5766,0.1799,Romford,,se,Greater London,
15.0,350833,54.0761,-4.6557,Castletown (Isle Of Man),,nw,,
112.0,350835,54.2571,-5.944,Castlewellan,,ni,County Down,
0.0,350836,51.5667,-4.0299,Caswell Bay,,wl,Swansea,
25.0,350844,52.2968,0.5843,Cavenham,,ee,Suffolk,
69.0,350850,53.4896,-2.7112,Chadwick Green,,nw,Merseyside,
190.0,350851,50.6726,-3.8391,Chagford,Dartmoor National Park,sw,Devon,
50.0,350876,53.4033,-2.1838,Cheadle Heath,,nw,Greater Manchester,
9.0,350879,51.2727,-2.7819,Cheddar Youth Hostel,,sw,Somerset,
60.0,350883,51.921,-2.0544,Cheltenham Racecourse,,sw,Gloucestershire,
105.0,350887,51.709,-0.6108,Chesham (Buckinghamshire),,se,Buckinghamshire,
14.0,350893,54.8593,-1.5691,Chester-Le-Street,,ne,Durham,
14.0,350896,50.8371,-0.7734,Chichester,,se,West Sussex,
62.0,350898,51.6258,0.0823,Chigwell,,ee,Essex,
135.0,350899,51.2681,-2.5012,Chilcompton,,sw,Somerset,
52.0,350900,53.3964,-2.8815,Childwall,,nw,Merseyside,
30.0,350903,52.9121,-1.2401,Chilwell,,em,Nottinghamshire,
49.0,350910,55.009,-1.4697,Chirton,,ne,North Tyneside,
1047.0,350911,56.8282,-4.6578,Chno Dearg,,he,Highland,
43.0,350918,51.2609,-0.5777,Christ's College Ski Club Guildford,,se,Surrey,
135.0,350921,51.9243,-1.4506,Church Enstone,,se,Oxfordshire,
12.0,350922,53.8803,-2.7854,Churchtown,,nw,Lancashire,
12.0,350931,51.7891,1.1548,Clacton-On-Sea,,ee,Essex,
80.0,350935,52.6147,-1.1185,Clarendon Park,,em,Leicester,
140.0,350937,53.1635,-1.4133,Clay Cross,,em,Derbyshire,
73.0,350939,53.4845,-2.182,Clayton (Greater Manchester),,nw,Greater Manchester,
152.0,350940,52.9875,-2.221,Clayton (Staffordshire),,wm,Staffordshire,
36.0,350943,54.955,-1.3991,Cleadon,,ne,South Tyneside,
31.0,350950,51.4417,-2.8549,Clevedon,,sw,North Somerset,
5.0,350952,53.8757,-3.0407,Cleveleys,,nw,Lancashire,
82.0,350954,53.5297,-2.3439,Clifton (Greater Manchester),,nw,Greater Manchester,
99.0,350968,55.8623,-4.018,Coatbridge,,st,North Lanarkshire,
83.0,353240,55.3104,-1.908,Rothbury,,ne,Northumberland,
546.0,353246,50.6023,-3.9678,Rough Tor,Dartmoor National Park,sw,Devon,
153.0,353247,52.591,-1.8076,Roughley,,wm,West Midlands Conurbation,
100.0,353256,52.4471,-1.5037,Rowley's Green,,wm,West Midlands Conurbation,
15.0,353257,57.1892,-2.0778,Royal Aberdeen Golf Club,,gr,Aberdeen,
23.0,353259,55.9661,-3.2116,Royal Botanic Garden Edinburgh,,dg,Edinburgh,
32.0,353262,55.9445,-3.3721,Royal Highland Showground,,dg,Edinburgh,
10.0,353265,53.7485,-3.0112,Royal Lytham & St. Anne's Golf Club,,nw,Lancashire,
4.0,353268,51.2917,1.37,Royal St. Georges Golf Club,,se,Kent,
4.0,353269,55.5284,-4.6397,Royal Troon Golf Club,,st,South Ayrshire,
71.0,353272,53.5995,-1.4524,Royston (South Yorkshire),,yh,South Yorkshire,
160.0,353273,53.5669,-2.1199,Royton,,nw,Greater Manchester,
50.0,353288,54.2333,-0.5281,Ruston,,yh,North Yorkshire,
173.0,353291,50.7491,-2.844,Ryall,,sw,Dorset,
29.0,353293,50.7294,-1.1618,Ryde,,se,Isle of Wight,
54.0,353296,54.9764,-1.7642,Ryton,,ne,Gateshead,
88.0,353302,50.3122,-5.202,St Agnes,,sw,Cornwall,
113.0,353304,51.7523,-0.3379,St Albans,,ee,Hertfordshire,
20.0,353305,56.3394,-2.795,St Andrews,,ta,Fife,
2.0,353306,56.3525,-2.8114,St Andrews Links,,ta,Fife,
33.0,353307,54.9642,-1.5482,St Anthony's,,ne,Newcastle upon Tyne,
179.0,353316,56.3956,-4.112,St Fillans,Loch Lomond and the Trossachs National Park,ta,Perth and Kinross,
36.0,353318,53.4561,-2.7357,St Helens,,nw,Merseyside,
23.0,353321,50.2107,-5.4793,St Ives (Cornwall),,sw,Cornwall,
125.0,353322,50.124,-5.6782,St Just,,sw,Cornwall,
10.0,353328,51.5339,-3.0779,St Mellons Golf Club,,wl,Newport,
15.0,353330,52.227,-0.2629,St Neots,,ee,Cambridgeshire,
14.0,353338,53.2843,0.1887,Saleby,,em,Lincolnshire,
52.0,353344,54.5814,-0.9735,Saltburn-By-The-Sea,,ne,Redcar and Cleveland,
97.0,353346,52.492,-1.8572,Saltley,,wm,West Midlands Conurbation,
66.0,353351,53.1463,-2.366,Sandbach,,nw,Cheshire East,
0.0,353352,57.685,-2.744,Sandend,,gr,Aberdeenshire,
5.0,353355,50.6586,-1.1479,Sandown,,se,Isle of Wight,
3.0,353362,51.2735,1.3391,Sandwich,,se,Kent,
0.0,353365,50.861,-4.557,Sandymouth,,sw,Cornwall,
24.0,353367,51.709,-4.6986,Saundersfoot,Pembrokeshire Coast National Park,wl,Pembrokeshire,
64.0,353368,51.4299,-0.5998,Savill Gardens,,se,Surrey,
1083.0,353377,56.6652,-4.0955,Schiehallion,,ta,Perth and Kinross,
31.0,353380,54.9729,-1.6925,Scotswood,,ne,Newcastle upon Tyne,
6.0,353382,53.5878,-0.6951,Scunthorpe United F.C.,,yh,North Lincolnshire,
0.0,353384,52.7879,1.6124,Sea Palling,,ee,Norfolk,
151.0,350973,52.8233,-3.8921,Coed Y Brenin Forest Park,Snowdonia National Park,wl,Gwynedd,
180.0,350979,51.795,-2.6118,Coleford,,sw,Gloucestershire,
100.0,350980,52.4993,-1.705,Coleshill,,wm,Warwickshire,
,350982,60.5606,-0.9468,Colgrave Sound,,os,Shetland Islands,
109.0,350987,52.8031,-0.6191,Colsterworth,,em,Lincolnshire,
59.0,350988,53.7874,-1.4418,Colton,,yh,West Yorkshire,
72.0,350989,55.9828,-4.038,Colzium House,,st,North Lanarkshire,
204.0,350990,51.1207,-3.3254,Combe Sydenham Hall,Exmoor National Park,sw,Somerset,
11.0,350991,54.5505,-5.7444,Comber,,ni,County Down,
31.0,350993,50.7062,-1.9267,Compton Acres,,sw,Poole,
980.0,350994,57.789,-4.9068,Cona Mheall,,he,Highland,
57.0,350998,54.3689,-3.0745,Coniston,Lake District National Park,nw,Cumbria,
213.0,350999,54.3747,-3.0813,Coniston Coppermines Youth Hostel,Lake District National Park,nw,Cumbria,
63.0,351006,53.2785,-3.8418,Conwy Youth Hostel,,wl,Conwy,
79.0,351007,54.6454,-6.7455,Cookstown,,ni,County Londonderry,
142.0,351009,53.4871,-2.0406,Copley,,nw,Greater Manchester,
38.0,351012,54.9739,-2.016,Corbridge,,ne,Northumberland,
149.0,351020,52.5476,-2.0729,Coseley,,wm,West Midlands Conurbation,
9.0,351021,50.8448,-1.0623,Cosham,,se,Portsmouth,
69.0,351022,50.4952,-4.2242,Cotehele,,sw,Cornwall,
48.0,351028,52.9291,-1.4566,County Ground Derbyshire C.C.C.,,em,Derby,
24.0,351029,50.8299,-0.1623,County Ground Sussex C.C.C.,,se,Brighton and Hove,
23.0,351035,51.4617,-3.4483,Cowbridge,,wl,Vale of Glamorgan,
78.0,351037,55.0085,-1.6365,Coxlodge,,ne,Newcastle upon Tyne,
139.0,351038,53.4033,-1.4654,Crabtree,,yh,South Yorkshire,
162.0,351044,55.3149,-1.8821,Cragside,,ne,Northumberland,
52.0,351045,57.4889,-5.2754,Craig,,he,Highland,
137.0,351051,55.5596,-4.4921,Craigie,,st,South Ayrshire,
30.0,351053,58.4829,-3.9019,Craigtown,,he,Highland,
69.0,351062,57.0635,-2.4354,Crathes Castle Grounds,,gr,Aberdeenshire,
80.0,351098,53.8076,-1.4597,Cross Gates,,yh,West Yorkshire,
19.0,351102,54.3988,-5.7633,Crossgar,,ni,County Down,
8.0,351110,53.6111,-0.8306,Crowle,,yh,North Lincolnshire,
85.0,351111,50.4093,-4.1261,Crownhill,,sw,Plymouth,
87.0,351112,51.3657,-0.795,Crowthorne,,se,Bracknell Forest,
481.0,351116,56.1276,-5.1076,Cruach Nan Capull,,st,Argyll and Bute,
11.0,351121,51.7906,0.9859,Cudmore Grove,,ee,Essex,
70.0,351122,53.5776,-1.4135,Cudworth,,yh,South Yorkshire,
20.0,351124,57.6918,-2.8204,Cullen,,gr,Moray,
16.0,353391,50.7048,-3.0708,Seaton,,sw,Devon,
220.0,353395,52.5433,-2.1217,Sedgley,,wm,West Midlands Conurbation,
2.0,353397,53.7833,-1.0656,Selby,,yh,North Yorkshire,
169.0,353398,55.5506,-2.8371,Selkirk,,dg,Scottish Borders,
140.0,353399,52.4424,-1.9362,Selly Oak,,wm,West Midlands Conurbation,
952.0,353407,56.7755,-4.5461,Sgor Gaibhre,,he,Perth and Kinross,
1118.0,353408,57.0625,-3.815,Sgor Gaoith,Cairngorms National Park,he,Highland,
1038.0,353414,57.1751,-5.2532,Sgurr A' Bhealaich Dheirg,,he,Highland,
1083.0,353416,57.4452,-4.8975,Sgurr A' Choire Ghlais,,he,Highland,
1027.0,353420,57.1058,-5.3263,Sgurr A' Mhaoraich,,he,Highland,
1004.0,353423,57.1386,-5.2925,Sgurr An Lochain,,he,Highland,
1000.0,353425,57.6899,-5.0914,Sgurr Breac,,he,Highland,
944.0,353429,57.2049,-6.2135,Sgurr Dubh Mor,,he,Highland,
1068.0,353431,57.1929,-5.3431,Sgurr Fhuaran,,he,Highland,
993.0,353443,57.4455,-4.8393,Sgurr Na Ruaidhe,,he,Highland,
915.0,353445,57.4836,-5.1951,Sgurr Nan Ceannaichean,,he,Highland,
1151.0,353446,57.2548,-5.2256,Sgurr Nan Ceathreamhnan,,he,Highland,
923.0,353451,57.6822,-5.0434,Sgurr Nan Each,,he,Highland,
924.0,353452,57.1964,-6.2084,Sgurr Nan Eag,,he,Highland,
963.0,353454,56.9352,-5.3904,Sgurr Thuilm,,he,Highland,
43.0,353461,53.3936,-2.2533,Sharston,,nw,Greater Manchester,
179.0,353462,53.5799,-2.09,Shaw,,nw,Greater Manchester,
154.0,353463,53.6281,-2.1711,Shawclough,,nw,Greater Manchester,
37.0,353469,50.9992,0.0154,Sheffield Park,,se,East Sussex,
36.0,353473,52.0368,-0.3308,Shefford,,ee,Central Bedfordshire,
98.0,353474,52.4514,-1.7807,Sheldon,,wm,West Midlands Conurbation,
72.0,353479,52.7698,-1.2909,Shepshed,,em,Leicestershire,
27.0,353484,52.938,1.2129,Sheringham Youth Hostel,,ee,Norfolk,
75.0,353485,53.1977,-1.068,Sherwood Forest Amusement Park,,em,Nottinghamshire,
81.0,353487,53.1747,-1.0846,Sherwood Pines Forest Park,,em,Nottinghamshire,
142.0,353502,52.3958,-1.8231,Shirley Heath,,wm,West Midlands Conurbation,
2.0,353507,50.8339,-0.2751,Shoreham-By-Sea,,se,West Sussex,
64.0,353509,52.6954,-2.7313,Shrewsbury Youth Hostel,,wm,Shropshire,
115.0,353518,53.9154,-1.9359,Silsden,,yh,West Yorkshire,
,353521,58.5003,-3.1076,Sinclair's Bay,,he,Highland,
191.0,353528,52.6153,-0.9083,Skeffington,,em,Leicestershire,
39.0,351129,55.3495,-4.7906,Culzean Castle Garden,,st,South Ayrshire,
110.0,351132,55.4535,-4.2645,Cumnock,,st,East Ayrshire,
187.0,351137,53.624,-2.2089,Cutgate,,nw,Greater Manchester,
10.0,351142,51.54,0.1478,Dagenham,,se,Greater London,
14.0,351145,54.9341,-3.8212,Dalbeattie,,dg,Dumfries and Galloway,
413.0,351158,51.8366,-3.6927,Dan Yr Ogof Ski Centre,Brecon Beacons National Park,wl,Powys,
16.0,351166,52.2739,1.549,Darsham,,ee,Suffolk,
47.0,351168,50.4547,-3.6893,Dartington Hall Grounds,,sw,Devon,
23.0,351169,50.4474,-3.7139,Dartington Youth Hostel,,sw,Devon,
225.0,351170,50.5423,-3.8741,Dartmeet,Dartmoor National Park,sw,Devon,
79.0,351174,53.3882,-2.1505,Davenport,,nw,Greater Manchester,
19.0,351175,57.1349,-2.1025,David Welch Winter Gardens,,gr,Aberdeen,
2.0,351179,51.222,1.4034,Deal,,se,Kent,
119.0,351181,53.5708,-2.4717,Deane,,nw,Greater Manchester,
97.0,351187,53.1837,-3.4237,Denbigh,,wl,Denbighshire,
56.0,351189,52.3742,-0.5445,Denford,,em,Northamptonshire,
408.0,351203,55.7287,-3.0424,Dewar,,dg,Scottish Borders,
67.0,351206,51.6076,-1.2434,Didcot,,se,Oxfordshire,
30.0,351207,53.4138,-2.233,Didsbury,,nw,Greater Manchester,
31.0,351212,52.7149,1.119,Dinosaur Adventure Park Norfolk,,ee,Norfolk,
178.0,351214,53.3581,-2.0406,Disley,,nw,Cheshire East,
483.0,351216,54.6138,-6.0201,Divis,,ni,County Antrim,
16.0,351217,52.1091,0.0376,Docwra's Manor Gardens,,ee,Cambridgeshire,
172.0,351218,53.5906,-2.4713,Doffcocker,,nw,Greater Manchester,
9.0,351222,54.6417,-5.5351,Donaghadee,,ni,County Down,
9.0,351223,53.5179,-1.0924,Doncaster Racecourse,,yh,South Yorkshire,
6.0,351224,53.5077,-1.1095,Doncaster Rovers Fc,,yh,South Yorkshire,
31.0,351238,52.6063,0.3871,Downham Market,,ee,Norfolk,
4.0,351239,54.328,-5.7156,Downpatrick,,ni,County Down,
10.0,351243,50.8455,-1.0388,Drayton (Portsmouth),,se,Portsmouth,
80.0,351245,52.6033,-1.7288,Drayton Manor Park,,wm,Staffordshire,
142.0,351246,52.9788,-2.1383,Dresden,,wm,Stoke-on-Trent,
947.0,351247,56.8478,-3.1954,Driesh,,ta,Angus,
20.0,351248,54.0058,-0.4417,Driffield,,yh,East Riding of Yorkshire,
125.0,351250,54.3794,-6.017,Dromara,,ni,County Antrim,
82.0,351251,54.4155,-6.1464,Dromore,,ni,County Down,
213.0,351253,53.3035,-1.5029,Dronfield Woodhouse,,em,Derbyshire,
93.0,351254,53.4805,-2.1473,Droylsden,,nw,Greater Manchester,
95.0,351257,56.3382,-3.8603,Drummond Castle Gardens,,ta,Perth and Kinross,
120.0,351260,52.0121,0.1249,Duddenhoe End,,ee,Essex,
78.0,351273,54.2363,-1.0675,Duncombe Park Garden,North York Moors National Park,yh,North Yorkshire,
1.0,351274,56.4522,-3.0124,Dundee Airport,,ta,Dundee,
82.0,351276,56.4759,-2.9684,Dundee United F.C.,,ta,Dundee,
24.0,351277,54.5878,-5.7983,Dundonald,,ni,County Down,
483.0,353534,54.6516,-3.1054,Skiddaw House Youth Hostel,Lake District National Park,nw,Cumbria,
190.0,353536,53.9671,-2.4491,Slaidburn Youth Hostel,,nw,Lancashire,
129.0,353544,52.4738,-1.8542,Small Heath,,wm,West Midlands Conurbation,
157.0,353546,53.0519,-2.1714,Smallthorne,,wm,Stoke-on-Trent,
75.0,353548,53.367,-2.1885,Smithy Green,,nw,Greater Manchester,
38.0,353549,52.463,0.951,Snetterton Motor Racing Circuit,,ee,Norfolk,
59.0,353552,52.6263,-1.6908,Snowdome Tamworth,,wm,Staffordshire,
195.0,353554,52.0048,-1.8714,Snowshill Manor,,sw,Gloucestershire,
1002.0,353556,57.1893,-5.0929,Sil Chaorainn,,he,Highland,
,353563,57.0714,-7.3837,Sound Of Barra,,he,Na h-Eileanan Siar,
,353564,57.0469,-6.4106,Sound Of Canna,,he,Highland,
,353569,57.5473,-7.571,Sound Of Monach,,he,Na h-Eileanan Siar,
85.0,353575,51.4746,-2.4966,Soundwell,,sw,South Gloucestershire,
119.0,353577,50.4294,-3.8362,South Brent,Dartmoor National Park,sw,Devon,
51.0,353579,53.5975,-1.2817,South Elmsall,,yh,West Yorkshire,
66.0,353582,54.9035,-1.4366,South Hylton,,ne,Sunderland,
41.0,353583,52.3934,1.0012,South Lopham,,ee,Norfolk,
20.0,353586,51.5207,0.296,South Ockendon,,ee,Thurrock,
20.0,353590,53.3613,-0.8529,South Wheatley,,em,Nottinghamshire,
46.0,353608,54.9234,-1.4071,Southwick (Tyne & Wear),,ne,Sunderland,
1.0,353610,52.325,1.684,Southwold (Beach),,ee,Suffolk,
29.0,353614,53.3408,-2.8406,Speke,,nw,Merseyside,
1054.0,353618,57.5661,-5.4649,Spidean A' Choire Leith,,he,Highland,
21.0,353622,50.7763,-1.5389,Spinners Boldre,New Forest National Park,se,Hampshire,
41.0,353625,55.8597,-4.1534,Springboig,,st,Glasgow,
613.0,353634,58.0444,-5.2046,Stac Pollaidh,,he,Highland,
108.0,353637,54.5794,-1.8,Staindrop,,ne,Durham,
2.0,353639,53.598,-1.0338,Stainforth (South Yorkshire),,yh,South Yorkshire,
24.0,353644,52.6509,-0.4786,Stamford,,em,Lincolnshire,
196.0,353655,53.394,-1.5339,Stannington,,yh,South Yorkshire,
47.0,353659,53.05659,-2.494212,Butt Green,,nw,Cheshire East,
49.0,353661,52.9283,-1.2712,Stapleford,,em,Nottinghamshire,
104.0,353665,52.4836,-1.8061,Stechford,,wm,West Midlands Conurbation,
93.0,353671,51.9033,-0.195,Stevenage,,ee,Hertfordshire,
16.0,353672,55.6418,-4.7591,Stevenston,,st,North Ayrshire,
91.0,353673,55.68,-4.5123,Stewarton,,st,East Ayrshire,
16.0,353674,50.8869,-0.3251,Steyning,,se,West Sussex,
50.0,353675,56.1224,-3.9465,Stirling Youth Hostel (St. John Street),,ta,Stirling,
947.0,353679,56.5694,-4.8339,Stob A' Choire Odhair,,st,Argyll and Bute,
7.0,351286,55.951,-4.925,Dunoon,,st,Argyll and Bute,
131.0,351287,55.7778,-2.3419,Duns,,dg,Scottish Borders,
55.0,351294,57.2036,-2.1886,Dyce,,gr,Aberdeen,
53.0,351295,51.4415,-3.3075,Dyffryn House Gardens,,wl,Vale of Glamorgan,
152.0,351296,51.4801,-2.368,Dyrham Park,,sw,South Gloucestershire,
31.0,351297,51.5117,-0.3023,Ealing,,se,Greater London,
31.0,351300,52.2214,1.2701,Earl Soham,,ee,Suffolk,
72.0,351306,54.9854,-1.6979,East Denton,,ne,Newcastle upon Tyne,
31.0,351307,53.4095,-2.2257,East Didsbury,,nw,Greater Manchester,
125.0,351309,51.1282,-0.0129,East Grinstead,,se,West Sussex,
16.0,351313,50.9661,-2.7985,East Lambrook Manor,,sw,Somerset,
,351315,57.866,-6.7601,East Loch Tarbert,,he,Na h-Eileanan Siar,
90.0,351317,52.8304,-1.328,East Midlands Airport,,em,Leicestershire,
80.0,351319,51.0034,-2.2841,East Stour,,sw,Dorset,
88.0,351323,50.769,0.255,Eastbourne Youth Hostel,,se,East Sussex,
29.0,351332,51.5685,0.6653,Eastwood (Southend-On-Sea),,ee,Southend-on-Sea,
298.0,351333,51.7771,-3.2048,Ebbw Vale,,wl,Blaenau Gwent,
83.0,351335,53.4417,-1.465,Ecclesfield,,yh,South Yorkshire,
92.0,351336,52.8584,-2.2516,Eccleshall,,wm,Staffordshire,
342.0,351339,53.3787,-1.791,Edale Youth Hostel,Peak District National Park,em,Derbyshire,
31.0,351341,59.182,-2.7679,Eday Youth Hostel,,os,Orkney Islands,
74.0,351356,55.9453,-3.1797,Edinburgh Pleasance Youth Hostel,,dg,Edinburgh,
17.0,351362,51.4284,-0.5463,Egham,,se,Surrey,
35.0,351364,53.2109,-0.8985,Egmanton,,em,Nottinghamshire,
123.0,351369,53.6833,-1.8434,Elland,,yh,West Yorkshire,
230.0,351373,54.2479,-1.7344,Ellingstring Youth Hostel,,yh,North Yorkshire,
140.0,351377,50.968,-4.5229,Elmscott Youth Hostel,,sw,Devon,
101.0,351379,53.5969,-2.3114,Elton,,nw,Greater Manchester,
14.0,351382,51.4829,-3.2376,Ely (Cardiff),,wl,Cardiff,
196.0,351383,51.2506,0.1169,Emmetts Garden,,se,Kent,
2.0,351384,52.6439,0.2377,Emneth Hungate,,ee,Norfolk,
30.0,351387,51.654,-0.0814,Enfield,,se,Greater London,
100.0,351389,51.6999,0.1103,Epping,,ee,Essex,
92.0,351394,53.0228,-3.0058,Erddig,,wl,Wrexham,
35.0,351396,50.4188,-4.1739,Ernesettle,,sw,Plymouth,
143.0,351404,52.5637,-2.0926,Ettingshall,,wm,West Midlands Conurbation,
100.0,351417,52.4613,-1.4815,Exhall,,wm,Warwickshire,
87.0,351427,51.7071,-1.7837,Fairford,,sw,Gloucestershire,
999.0,353681,56.7467,-5.0262,Stob Ban (Mamores),,he,Highland,
998.0,353692,56.4291,-5.0935,Stob Diamh,,st,Argyll and Bute,
1053.0,353696,56.9644,-4.5841,Stob Poite Coire Ardair,,he,Highland,
67.0,353698,53.4065,-2.1574,Stockport,,nw,Greater Manchester,
163.0,353699,53.4825,-1.5922,Stocksbridge,,yh,South Yorkshire,
90.0,353701,51.4131,-2.5386,Stockwood,,sw,Bristol,
110.0,353714,51.1788,-1.8388,Stonehenge,,sw,Wiltshire,
69.0,353718,52.0566,-0.8475,Stony Stratford,,se,Milton Keynes,
49.0,353732,51.3518,-0.9985,Stratfield Saye House,,se,Hampshire,
190.0,353736,55.6756,-4.063,Strathaven,,st,South Lanarkshire,
162.0,353743,52.5755,-1.882,Streetly,,wm,West Midlands Conurbation,
49.0,353751,57.5027,-2.043,Stuartfield,,gr,Aberdeenshire,
193.0,353752,53.3062,-1.4902,Stubley,,em,Derbyshire,
